{"xgyro": 0.005777288228273392, "zmag": -0.4357113242149353, "ygyro": -0.007268913090229034, "xmag": 0.00455651618540287, "diff_pressure": 0.0, "zacc": -9.909690856933594, "xacc": -0.20177219808101654, "yacc": 0.1761971414089203, "abs_pressure": 0.0, "fields_updated": 7167, "zgyro": 0.004513509571552277, "pressure_alt": 0.14124292135238647, "mavpackettype": "HIGHRES_IMU", "ymag": -0.22171738743782043, "time_usec": 44834175, "temperature": 32.0}
{"xgyro": 0.0076531642116606236, "zmag": -0.4264489412307739, "ygyro": -0.0037952193524688482, "xmag": -0.0034333181101828814, "diff_pressure": 0.0, "zacc": -9.785346984863281, "xacc": -0.24437767267227173, "yacc": 0.2511105537414551, "abs_pressure": 0.0, "fields_updated": 7167, "zgyro": -0.0038130232132971287, "pressure_alt": -0.007366934325546026, "mavpackettype": "HIGHRES_IMU", "ymag": -0.1910218596458435, "time_usec": 44854184, "temperature": 32.0}
{"xgyro": -0.0037006104830652475, "zmag": -0.42801594734191895, "ygyro": -0.009971280582249165, "xmag": -0.000284674548311159, "diff_pressure": 0.0, "zacc": -9.801037788391113, "xacc": -0.2558192014694214, "yacc": 0.06016374006867409, "abs_pressure": 0.0, "fields_updated": 7167, "zgyro": 0.002399548888206482, "pressure_alt": 0.045344866812229156, "mavpackettype": "HIGHRES_IMU", "ymag": -0.19891560077667236, "time_usec": 44873624, "temperature": 32.0}
{"xgyro": -0.001902917167171836, "zmag": -0.41887789964675903, "ygyro": -0.003444649511948228, "xmag": -0.0005561175057664514, "diff_pressure": 0.0, "zacc": -9.814570426940918, "xacc": -0.27205872535705566, "yacc": 0.1602458506822586, "abs_pressure": 0.0, "fields_updated": 7167, "zgyro": -0.0014298437163233757, "pressure_alt": 0.04725011810660362, "mavpackettype": "HIGHRES_IMU", "ymag": -0.20749811828136444, "time_usec": 44893640, "temperature": 32.0}
{"xgyro": 0.0015730311861261725, "zmag": -0.4214159846305847, "ygyro": -0.004259058274328709, "xmag": 0.00033293094020336866, "diff_pressure": 0.0, "zacc": -9.90880298614502, "xacc": -0.2537534236907959, "yacc": 0.13717366755008698, "abs_pressure": 0.0, "fields_updated": 7167, "zgyro": 0.0033284840174019337, "pressure_alt": 0.0910709798336029, "mavpackettype": "HIGHRES_IMU", "ymag": -0.20510028302669525, "time_usec": 44915567, "temperature": 32.0}
{"xgyro": 0.0022437141742557287, "zmag": -0.43465277552604675, "ygyro": -0.0021256154868751764, "xmag": -0.0066813696175813675, "diff_pressure": 0.0, "zacc": -9.924728393554688, "xacc": -0.2785933315753937, "yacc": 0.21464325487613678, "abs_pressure": 0.0, "fields_updated": 7167, "zgyro": 0.0007653939537703991, "pressure_alt": -0.02387901023030281, "mavpackettype": "HIGHRES_IMU", "ymag": -0.20903080701828003, "time_usec": 44930296, "temperature": 32.0}
{"xgyro": -0.0022774829994887114, "zmag": -0.44725748896598816, "ygyro": -0.007401022594422102, "xmag": 0.004727035295218229, "diff_pressure": 0.0, "zacc": -9.898982048034668, "xacc": -0.30515816807746887, "yacc": 0.1802547574043274, "abs_pressure": 0.0, "fields_updated": 7167, "zgyro": -0.0017517083324491978, "pressure_alt": 0.12282534688711166, "mavpackettype": "HIGHRES_IMU", "ymag": -0.2200273871421814, "time_usec": 44952211, "temperature": 32.0}
{"xgyro": -0.01245912630110979, "zmag": -0.4154888987541199, "ygyro": -0.005358741618692875, "xmag": -0.010574771091341972, "diff_pressure": 0.0, "zacc": -9.856145858764648, "xacc": -0.25811177492141724, "yacc": 0.13181175291538239, "abs_pressure": 0.0, "fields_updated": 7167, "zgyro": 0.0019048549002036452, "pressure_alt": -0.10389869660139084, "mavpackettype": "HIGHRES_IMU", "ymag": -0.22821685671806335, "time_usec": 44975537, "temperature": 32.0}
{"xgyro": 0.001559905824251473, "zmag": -0.4344882071018219, "ygyro": 0.0035894950851798058, "xmag": -0.01615162193775177, "diff_pressure": 0.0, "zacc": -9.806041717529297, "xacc": -0.25040262937545776, "yacc": 0.21047140657901764, "abs_pressure": 0.0, "fields_updated": 7167, "zgyro": -0.006711575668305159, "pressure_alt": 0.007239923346787691, "mavpackettype": "HIGHRES_IMU", "ymag": -0.19919458031654358, "time_usec": 44991440, "temperature": 32.0}
{"xgyro": 0.007368905935436487, "zmag": -0.41464322805404663, "ygyro": -0.0037181403022259474, "xmag": 0.012487084604799747, "diff_pressure": 0.0, "zacc": -9.813193321228027, "xacc": -0.3771526515483856, "yacc": 0.20421645045280457, "abs_pressure": 0.0, "fields_updated": 7167, "zgyro": -0.012116805650293827, "pressure_alt": 0.0428045317530632, "mavpackettype": "HIGHRES_IMU", "ymag": -0.2047520875930786, "time_usec": 45013859, "temperature": 32.0}
{"xgyro": 0.001938854344189167, "zmag": -0.4143529236316681, "ygyro": -0.0011757075553759933, "xmag": -0.0007218067767098546, "diff_pressure": 0.0, "zacc": -9.878776550292969, "xacc": -0.3613867461681366, "yacc": 0.2329264134168625, "abs_pressure": 0.0, "fields_updated": 7167, "zgyro": 0.0016560646472498775, "pressure_alt": 0.05868162959814072, "mavpackettype": "HIGHRES_IMU", "ymag": -0.21293997764587402, "time_usec": 45032930, "temperature": 32.0}
{"xgyro": 0.0012877732515335083, "zmag": -0.440157949924469, "ygyro": -0.008920746855437756, "xmag": 0.03171645849943161, "diff_pressure": 0.0, "zacc": -9.914130210876465, "xacc": -0.24255137145519257, "yacc": 0.1627444177865982, "abs_pressure": 0.0, "fields_updated": 7167, "zgyro": 0.007512419950217009, "pressure_alt": 0.03835894912481308, "mavpackettype": "HIGHRES_IMU", "ymag": -0.20741049945354462, "time_usec": 45054854, "temperature": 32.0}
{"xgyro": -0.0038432518485933542, "zmag": -0.42599397897720337, "ygyro": -0.012045573443174362, "xmag": -0.011221942491829395, "diff_pressure": 0.0, "zacc": -9.773210525512695, "xacc": -0.3451898694038391, "yacc": 0.2197229564189911, "abs_pressure": 0.0, "fields_updated": 7167, "zgyro": 0.00935915857553482, "pressure_alt": 0.0428045317530632, "mavpackettype": "HIGHRES_IMU", "ymag": -0.2176876664161682, "time_usec": 45072596, "temperature": 32.0}
{"xgyro": 0.00938101951032877, "zmag": -0.41881006956100464, "ygyro": -0.0037760394625365734, "xmag": 0.0016535015311092138, "diff_pressure": 0.0, "zacc": -9.880915641784668, "xacc": -0.23309212923049927, "yacc": 0.09360189735889435, "abs_pressure": 0.0, "fields_updated": 7167, "zgyro": -0.002836507046595216, "pressure_alt": 0.11329902708530426, "mavpackettype": "HIGHRES_IMU", "ymag": -0.2063135802745819, "time_usec": 45094897, "temperature": 32.0}
{"xgyro": -0.00285275443457067, "zmag": -0.4304651916027069, "ygyro": -0.011860488913953304, "xmag": 0.005578641779720783, "diff_pressure": 0.0, "zacc": -9.806784629821777, "xacc": -0.12075905501842499, "yacc": 0.08246158808469772, "abs_pressure": 0.0, "fields_updated": 7167, "zgyro": 0.006099941208958626, "pressure_alt": -0.03404027223587036, "mavpackettype": "HIGHRES_IMU", "ymag": -0.2152175009250641, "time_usec": 45114771, "temperature": 32.0}
{"xgyro": -0.008277136832475662, "zmag": -0.4168516993522644, "ygyro": -0.00626538647338748, "xmag": -0.009840922430157661, "diff_pressure": 0.0, "zacc": -9.859161376953125, "xacc": -0.3468863368034363, "yacc": 0.1615653783082962, "abs_pressure": 0.0, "fields_updated": 7167, "zgyro": -0.005282295402139425, "pressure_alt": 0.0707482397556305, "mavpackettype": "HIGHRES_IMU", "ymag": -0.21605545282363892, "time_usec": 45135461, "temperature": 32.0}
{"xgyro": -0.0028912657871842384, "zmag": -0.4334065914154053, "ygyro": -0.0040585859678685665, "xmag": -0.010416257195174694, "diff_pressure": 0.0, "zacc": -9.873777389526367, "xacc": -0.23939551413059235, "yacc": 0.11837933957576752, "abs_pressure": 0.0, "fields_updated": 7167, "zgyro": 0.0014892446342855692, "pressure_alt": -0.009907254949212074, "mavpackettype": "HIGHRES_IMU", "ymag": -0.2302245795726776, "time_usec": 45157997, "temperature": 32.0}
{"xgyro": 0.0021995622664690018, "zmag": -0.4379256069660187, "ygyro": -0.0025041112676262856, "xmag": 0.0038371137343347073, "diff_pressure": 0.0, "zacc": -9.746315956115723, "xacc": -0.2788378894329071, "yacc": 0.17101849615573883, "abs_pressure": 0.0, "fields_updated": 7167, "zgyro": 0.006108496338129044, "pressure_alt": 0.02311696484684944, "mavpackettype": "HIGHRES_IMU", "ymag": -0.21382646262645721, "time_usec": 45176270, "temperature": 32.0}
{"xgyro": -0.009887727908790112, "zmag": -0.4325937330722809, "ygyro": 0.0025744191370904446, "xmag": 0.0016545022372156382, "diff_pressure": 0.0, "zacc": -9.852974891662598, "xacc": -0.3433302938938141, "yacc": 0.2303316295146942, "abs_pressure": 0.0, "fields_updated": 7167, "zgyro": 0.003237541299313307, "pressure_alt": 0.18188871443271637, "mavpackettype": "HIGHRES_IMU", "ymag": -0.21820732951164246, "time_usec": 45193212, "temperature": 32.0}
{"xgyro": 0.0009597998578101397, "zmag": -0.4324057698249817, "ygyro": 0.00028199766529724, "xmag": -0.005089699290692806, "diff_pressure": 0.0, "zacc": -9.838056564331055, "xacc": -0.22133851051330566, "yacc": 0.15788142383098602, "abs_pressure": 0.0, "fields_updated": 7167, "zgyro": 0.002417525742202997, "pressure_alt": 0.026292376220226288, "mavpackettype": "HIGHRES_IMU", "ymag": -0.20565682649612427, "time_usec": 45215353, "temperature": 32.0}
{"xgyro": -0.004860637243837118, "zmag": -0.41591399908065796, "ygyro": 0.002725974889472127, "xmag": 0.006712496746331453, "diff_pressure": 0.0, "zacc": -9.898199081420898, "xacc": -0.28406041860580444, "yacc": 0.25892287492752075, "abs_pressure": 0.0, "fields_updated": 7167, "zgyro": 0.002145143458619714, "pressure_alt": 0.03962911665439606, "mavpackettype": "HIGHRES_IMU", "ymag": -0.22537073493003845, "time_usec": 45233619, "temperature": 32.0}
{"xgyro": 0.0019348962232470512, "zmag": -0.42808979749679565, "ygyro": -0.0032273686956614256, "xmag": 0.010077827610075474, "diff_pressure": 0.0, "zacc": -9.834543228149414, "xacc": -0.22010841965675354, "yacc": 0.25111398100852966, "abs_pressure": 0.0, "fields_updated": 7167, "zgyro": -0.0023414979223161936, "pressure_alt": 0.06439738720655441, "mavpackettype": "HIGHRES_IMU", "ymag": -0.22111822664737701, "time_usec": 45252076, "temperature": 32.0}
{"xgyro": -0.0018402087735012174, "zmag": -0.41931596398353577, "ygyro": -0.012136188335716724, "xmag": 0.01284695416688919, "diff_pressure": 0.0, "zacc": -9.84487533569336, "xacc": -0.26180344820022583, "yacc": 0.14181344211101532, "abs_pressure": 0.0, "fields_updated": 7167, "zgyro": -0.012431520968675613, "pressure_alt": 0.05233078822493553, "mavpackettype": "HIGHRES_IMU", "ymag": -0.2225651890039444, "time_usec": 45276310, "temperature": 32.0}
{"xgyro": 0.008109185844659805, "zmag": -0.42021340131759644, "ygyro": -0.0036127374041825533, "xmag": 0.0077005065977573395, "diff_pressure": 0.0, "zacc": -9.863286972045898, "xacc": -0.2716518044471741, "yacc": 0.047268979251384735, "abs_pressure": 0.0, "fields_updated": 7167, "zgyro": -0.0007704573217779398, "pressure_alt": 0.03962911665439606, "mavpackettype": "HIGHRES_IMU", "ymag": -0.200045645236969, "time_usec": 45293318, "temperature": 32.0}
{"xgyro": 0.004736096132546663, "zmag": -0.41669055819511414, "ygyro": 0.00438242731615901, "xmag": -0.008011148311197758, "diff_pressure": 0.0, "zacc": -9.873852729797363, "xacc": -0.20052120089530945, "yacc": 0.14004476368427277, "abs_pressure": 0.0, "fields_updated": 7167, "zgyro": -0.008289816789329052, "pressure_alt": 0.15267454087734222, "mavpackettype": "HIGHRES_IMU", "ymag": -0.2242448925971985, "time_usec": 45313406, "temperature": 32.0}
{"xgyro": -0.00011428413563407958, "zmag": -0.43972522020339966, "ygyro": -0.015063181519508362, "xmag": 0.002099527744576335, "diff_pressure": 0.0, "zacc": -9.817485809326172, "xacc": -0.19482015073299408, "yacc": 0.15980058908462524, "abs_pressure": 0.0, "fields_updated": 7167, "zgyro": 0.0065685901790857315, "pressure_alt": -0.0010161291575059295, "mavpackettype": "HIGHRES_IMU", "ymag": -0.2294832020998001, "time_usec": 45331962, "temperature": 32.0}
{"xgyro": -0.000654432165902108, "zmag": -0.417335569858551, "ygyro": -0.005637332331389189, "xmag": -0.0035147909075021744, "diff_pressure": 0.0, "zacc": -9.839261054992676, "xacc": -0.36426615715026855, "yacc": 0.07385068386793137, "abs_pressure": 0.0, "fields_updated": 7167, "zgyro": 0.011121927760541439, "pressure_alt": 0.09678675979375839, "mavpackettype": "HIGHRES_IMU", "ymag": -0.2117702066898346, "time_usec": 45354340, "temperature": 32.0}
{"xgyro": 0.002881414722651243, "zmag": -0.42009133100509644, "ygyro": -0.0025370405055582523, "xmag": -0.012209063395857811, "diff_pressure": 0.0, "zacc": -9.921875, "xacc": -0.2600726783275604, "yacc": 0.16932626068592072, "abs_pressure": 0.0, "fields_updated": 7167, "zgyro": -0.00258831400424242, "pressure_alt": 0.045344866812229156, "mavpackettype": "HIGHRES_IMU", "ymag": -0.226846382021904, "time_usec": 45376309, "temperature": 32.0}
{"xgyro": 0.0059017459861934185, "zmag": -0.4376867115497589, "ygyro": -0.003362171119078994, "xmag": 0.012246742844581604, "diff_pressure": 0.0, "zacc": -9.842249870300293, "xacc": -0.32364821434020996, "yacc": 0.2030147910118103, "abs_pressure": 0.0, "fields_updated": 7167, "zgyro": -0.002904485911130905, "pressure_alt": -0.030864879488945007, "mavpackettype": "HIGHRES_IMU", "ymag": -0.20135463774204254, "time_usec": 45388799, "temperature": 32.0}
{"xgyro": -0.0028028942178934813, "zmag": -0.4324766993522644, "ygyro": -0.010424266569316387, "xmag": -0.0072549269534647465, "diff_pressure": 0.0, "zacc": -9.948884010314941, "xacc": -0.12368419021368027, "yacc": 0.18007315695285797, "abs_pressure": 0.0, "fields_updated": 7167, "zgyro": 0.0011931303888559341, "pressure_alt": 0.03645370155572891, "mavpackettype": "HIGHRES_IMU", "ymag": -0.21831776201725006, "time_usec": 45413343, "temperature": 32.0}
{"xgyro": -0.002118851523846388, "zmag": -0.4088858366012573, "ygyro": -0.005633343476802111, "xmag": -0.005599637050181627, "diff_pressure": 0.0, "zacc": -9.780111312866211, "xacc": -0.24353885650634766, "yacc": 0.14644896984100342, "abs_pressure": 0.0, "fields_updated": 7167, "zgyro": -0.005714333150535822, "pressure_alt": 0.03835894912481308, "mavpackettype": "HIGHRES_IMU", "ymag": -0.20341287553310394, "time_usec": 45434132, "temperature": 32.0}
{"xgyro": -0.0010566238779574633, "zmag": -0.42700883746147156, "ygyro": -0.002827294869348407, "xmag": 0.007758718449622393, "diff_pressure": 0.0, "zacc": -9.805618286132812, "xacc": -0.23117591440677643, "yacc": 0.07268296182155609, "abs_pressure": 0.0, "fields_updated": 7167, "zgyro": -0.005313372239470482, "pressure_alt": -0.0213386919349432, "mavpackettype": "HIGHRES_IMU", "ymag": -0.21800866723060608, "time_usec": 45455988, "temperature": 32.0}
{"xgyro": -0.00976618193089962, "zmag": -0.4265328049659729, "ygyro": -0.001758476602844894, "xmag": 0.011141818016767502, "diff_pressure": 0.0, "zacc": -9.800128936767578, "xacc": -0.3128335475921631, "yacc": 0.18072982132434845, "abs_pressure": 0.0, "fields_updated": 7167, "zgyro": -0.002446661004796624, "pressure_alt": 0.06693772971630096, "mavpackettype": "HIGHRES_IMU", "ymag": -0.19790339469909668, "time_usec": 45475045, "temperature": 32.0}
{"xgyro": -0.0008005939889699221, "zmag": -0.41615089774131775, "ygyro": 0.0007678390247747302, "xmag": 0.008132354356348515, "diff_pressure": 0.0, "zacc": -9.793214797973633, "xacc": -0.2755208909511566, "yacc": 0.19721285998821259, "abs_pressure": 0.0, "fields_updated": 7167, "zgyro": -0.0032320518512278795, "pressure_alt": 0.03327828645706177, "mavpackettype": "HIGHRES_IMU", "ymag": -0.2227545529603958, "time_usec": 45494010, "temperature": 32.0}
{"xgyro": 0.000637458055280149, "zmag": -0.43789297342300415, "ygyro": -0.004916294943541288, "xmag": 0.01351757999509573, "diff_pressure": 0.0, "zacc": -9.757987022399902, "xacc": -0.2868137061595917, "yacc": 0.12736189365386963, "abs_pressure": 0.0, "fields_updated": 7167, "zgyro": 0.004495691973716021, "pressure_alt": 0.1844290941953659, "mavpackettype": "HIGHRES_IMU", "ymag": -0.21192458271980286, "time_usec": 45513173, "temperature": 32.0}
{"xgyro": 0.0035936846397817135, "zmag": -0.44580164551734924, "ygyro": -0.005558373872190714, "xmag": -0.008098975755274296, "diff_pressure": 0.0, "zacc": -9.865540504455566, "xacc": -0.15138059854507446, "yacc": 0.12211064249277115, "abs_pressure": 0.0, "fields_updated": 7167, "zgyro": 0.008915361016988754, "pressure_alt": -0.07849568873643875, "mavpackettype": "HIGHRES_IMU", "ymag": -0.22747763991355896, "time_usec": 45535506, "temperature": 32.0}
{"xgyro": -0.0009036546107381582, "zmag": -0.4456348717212677, "ygyro": -0.005713056307286024, "xmag": -0.0053800372406840324, "diff_pressure": 0.0, "zacc": -9.849560737609863, "xacc": -0.2681291401386261, "yacc": 0.12521497905254364, "abs_pressure": 0.0, "fields_updated": 7167, "zgyro": -0.011375496163964272, "pressure_alt": 0.153309628367424, "mavpackettype": "HIGHRES_IMU", "ymag": -0.2012317031621933, "time_usec": 45554198, "temperature": 32.0}
{"xgyro": -0.006739468779414892, "zmag": -0.43455973267555237, "ygyro": -0.00279864645563066, "xmag": -0.00993895623832941, "diff_pressure": 0.0, "zacc": -9.791893005371094, "xacc": -0.2519977390766144, "yacc": 0.2157726287841797, "abs_pressure": 0.0, "fields_updated": 7167, "zgyro": 0.0009333715424872935, "pressure_alt": -0.04801199585199356, "mavpackettype": "HIGHRES_IMU", "ymag": -0.21617111563682556, "time_usec": 45571553, "temperature": 32.0}
{"xgyro": -0.002596060046926141, "zmag": -0.42947450280189514, "ygyro": -0.000499773770570755, "xmag": 0.0031268594320863485, "diff_pressure": 0.0, "zacc": -9.717625617980957, "xacc": -0.13383062183856964, "yacc": 0.08556064963340759, "abs_pressure": 0.0, "fields_updated": 7167, "zgyro": -0.008462315425276756, "pressure_alt": 0.08217977732419968, "mavpackettype": "HIGHRES_IMU", "ymag": -0.21264779567718506, "time_usec": 45594041, "temperature": 32.0}
{"xgyro": 0.002249741228297353, "zmag": -0.4392852187156677, "ygyro": -0.00617237389087677, "xmag": -0.008989435620605946, "diff_pressure": 0.0, "zacc": -9.76533031463623, "xacc": -0.21132369339466095, "yacc": 0.11258824914693832, "abs_pressure": 0.0, "fields_updated": 7167, "zgyro": 3.7411326047731563e-05, "pressure_alt": 0.1444183737039566, "mavpackettype": "HIGHRES_IMU", "ymag": -0.2202218770980835, "time_usec": 45611035, "temperature": 32.0}
{"xgyro": 0.0029712484683841467, "zmag": -0.42699384689331055, "ygyro": -0.011772103607654572, "xmag": 0.016735544428229332, "diff_pressure": 0.0, "zacc": -9.810636520385742, "xacc": -0.2930397093296051, "yacc": 0.17506365478038788, "abs_pressure": 0.0, "fields_updated": 7167, "zgyro": -0.006511961109936237, "pressure_alt": 0.06947806477546692, "mavpackettype": "HIGHRES_IMU", "ymag": -0.20231083035469055, "time_usec": 45631592, "temperature": 32.0}
{"xgyro": -0.0009491313830949366, "zmag": -0.41452816128730774, "ygyro": -0.001375918393023312, "xmag": -0.01622035726904869, "diff_pressure": 0.0, "zacc": -9.931709289550781, "xacc": -0.3528018593788147, "yacc": 0.1924334168434143, "abs_pressure": 0.0, "fields_updated": 7167, "zgyro": 0.010103135369718075, "pressure_alt": 0.03772386536002159, "mavpackettype": "HIGHRES_IMU", "ymag": -0.2179657369852066, "time_usec": 45657199, "temperature": 32.0}
{"xgyro": 0.007294300477951765, "zmag": -0.41386428475379944, "ygyro": -0.010009026154875755, "xmag": -0.015930024906992912, "diff_pressure": 0.0, "zacc": -9.810959815979004, "xacc": -0.2878563404083252, "yacc": 0.20719948410987854, "abs_pressure": 0.0, "fields_updated": 7167, "zgyro": 0.005182289984077215, "pressure_alt": 0.15775525569915771, "mavpackettype": "HIGHRES_IMU", "ymag": -0.2052241414785385, "time_usec": 45673875, "temperature": 32.0}
{"xgyro": -0.0007586252759210765, "zmag": -0.4187021255493164, "ygyro": 0.0017191366059705615, "xmag": 0.011841626837849617, "diff_pressure": 0.0, "zacc": -9.799686431884766, "xacc": -0.15401601791381836, "yacc": 0.11779728531837463, "abs_pressure": 0.0, "fields_updated": 7167, "zgyro": 0.0035651479847729206, "pressure_alt": 0.13679729402065277, "mavpackettype": "HIGHRES_IMU", "ymag": -0.22676758468151093, "time_usec": 45696357, "temperature": 32.0}
{"xgyro": 0.0008945355657488108, "zmag": -0.408666729927063, "ygyro": -0.009814241901040077, "xmag": 0.009294719435274601, "diff_pressure": 0.0, "zacc": -9.922146797180176, "xacc": -0.18701906502246857, "yacc": 0.29445579648017883, "abs_pressure": 0.0, "fields_updated": 7167, "zgyro": -0.004927977453917265, "pressure_alt": 0.09869202226400375, "mavpackettype": "HIGHRES_IMU", "ymag": -0.20432479679584503, "time_usec": 45714372, "temperature": 32.0}
{"xgyro": 0.0046040271408855915, "zmag": -0.44420698285102844, "ygyro": -0.0036511188372969627, "xmag": -0.003153907833620906, "diff_pressure": 0.0, "zacc": -9.906025886535645, "xacc": -0.274583101272583, "yacc": 0.10586009174585342, "abs_pressure": 0.0, "fields_updated": 7167, "zgyro": 0.00247255084104836, "pressure_alt": 0.1310814917087555, "mavpackettype": "HIGHRES_IMU", "ymag": -0.22569335997104645, "time_usec": 45734901, "temperature": 32.0}
{"xgyro": 0.0010698584374040365, "zmag": -0.4213547706604004, "ygyro": 0.0004507877747528255, "xmag": -0.013422279618680477, "diff_pressure": 0.0, "zacc": -9.868254661560059, "xacc": -0.16349591314792633, "yacc": 0.15322721004486084, "abs_pressure": 0.0, "fields_updated": 7167, "zgyro": -0.006046812515705824, "pressure_alt": 0.03772386536002159, "mavpackettype": "HIGHRES_IMU", "ymag": -0.2103346884250641, "time_usec": 45754710, "temperature": 32.0}
{"xgyro": 0.006077542435377836, "zmag": -0.430107057094574, "ygyro": -0.001873908331617713, "xmag": -0.001345087424851954, "diff_pressure": 0.0, "zacc": -9.776883125305176, "xacc": -0.24620212614536285, "yacc": 0.17380574345588684, "abs_pressure": 0.0, "fields_updated": 7167, "zgyro": -0.0010279285488650203, "pressure_alt": 0.03835894912481308, "mavpackettype": "HIGHRES_IMU", "ymag": -0.2136377990245819, "time_usec": 45774783, "temperature": 32.0}
{"xgyro": 0.00639757513999939, "zmag": -0.4287163317203522, "ygyro": -0.008969711139798164, "xmag": -0.00792677141726017, "diff_pressure": 0.0, "zacc": -9.808992385864258, "xacc": -0.29005396366119385, "yacc": 0.1478547304868698, "abs_pressure": 0.0, "fields_updated": 7167, "zgyro": 0.0022965711541473866, "pressure_alt": -0.060713544487953186, "mavpackettype": "HIGHRES_IMU", "ymag": -0.21941666305065155, "time_usec": 45790084, "temperature": 32.0}
{"xgyro": -0.002062364248558879, "zmag": -0.4252377450466156, "ygyro": -0.013954797759652138, "xmag": -0.010329291224479675, "diff_pressure": 0.0, "zacc": -9.764240264892578, "xacc": -0.20909170806407928, "yacc": 0.12441328167915344, "abs_pressure": 0.0, "fields_updated": 7167, "zgyro": 0.005173707380890846, "pressure_alt": 0.0961516723036766, "mavpackettype": "HIGHRES_IMU", "ymag": -0.22591644525527954, "time_usec": 45814307, "temperature": 32.0}
{"xgyro": -0.004052352160215378, "zmag": -0.4221615791320801, "ygyro": -0.007111846003681421, "xmag": 0.0011536767706274986, "diff_pressure": 0.0, "zacc": -9.818764686584473, "xacc": -0.23438026010990143, "yacc": 0.15501223504543304, "abs_pressure": 0.0, "fields_updated": 7167, "zgyro": -0.00726568466052413, "pressure_alt": 0.022481882944703102, "mavpackettype": "HIGHRES_IMU", "ymag": -0.20269955694675446, "time_usec": 45833019, "temperature": 32.0}
{"xgyro": 0.0035413727164268494, "zmag": -0.42910459637641907, "ygyro": -0.006205165758728981, "xmag": -0.010528822429478168, "diff_pressure": 0.0, "zacc": -9.737183570861816, "xacc": -0.33845850825309753, "yacc": 0.24002857506275177, "abs_pressure": 0.0, "fields_updated": 7167, "zgyro": 0.002171546220779419, "pressure_alt": -0.015622975304722786, "mavpackettype": "HIGHRES_IMU", "ymag": -0.21067537367343903, "time_usec": 45852591, "temperature": 32.0}
{"xgyro": -0.0077269962057471275, "zmag": -0.41272079944610596, "ygyro": -0.0010274102678522468, "xmag": -0.011499649845063686, "diff_pressure": 0.0, "zacc": -9.807459831237793, "xacc": -0.2867858111858368, "yacc": 0.05316474288702011, "abs_pressure": 0.0, "fields_updated": 7167, "zgyro": -0.0013588641304522753, "pressure_alt": -0.0016512098954990506, "mavpackettype": "HIGHRES_IMU", "ymag": -0.20455892384052277, "time_usec": 45871157, "temperature": 32.0}
{"xgyro": 0.002494971500709653, "zmag": -0.41954049468040466, "ygyro": 0.0019869119860231876, "xmag": 0.005090575665235519, "diff_pressure": 0.0, "zacc": -9.747466087341309, "xacc": -0.2421407848596573, "yacc": 0.2083318531513214, "abs_pressure": 0.0, "fields_updated": 7167, "zgyro": 0.002822704380378127, "pressure_alt": 0.19014491140842438, "mavpackettype": "HIGHRES_IMU", "ymag": -0.2055129110813141, "time_usec": 45893387, "temperature": 32.0}
{"xgyro": -0.0021996519062668085, "zmag": -0.42435112595558167, "ygyro": -0.00869324803352356, "xmag": -0.0007224685978144407, "diff_pressure": 0.0, "zacc": -9.814167022705078, "xacc": -0.2596980333328247, "yacc": 0.10997256636619568, "abs_pressure": 0.0, "fields_updated": 7167, "zgyro": -0.0007863936480134726, "pressure_alt": -0.030229801312088966, "mavpackettype": "HIGHRES_IMU", "ymag": -0.21863187849521637, "time_usec": 45914999, "temperature": 32.0}
{"xgyro": -0.00544494716450572, "zmag": -0.4140307903289795, "ygyro": 0.001050900318659842, "xmag": -0.0038073458708822727, "diff_pressure": 0.0, "zacc": -9.895734786987305, "xacc": -0.2607141435146332, "yacc": 0.3025021553039551, "abs_pressure": 0.0, "fields_updated": 7167, "zgyro": -0.003861798904836178, "pressure_alt": 0.06122196465730667, "mavpackettype": "HIGHRES_IMU", "ymag": -0.23050428926944733, "time_usec": 45932542, "temperature": 32.0}
{"xgyro": -0.005286179482936859, "zmag": -0.42806339263916016, "ygyro": -0.0013605429558083415, "xmag": 0.0034170099534094334, "diff_pressure": 0.0, "zacc": -9.836447715759277, "xacc": -0.2037469893693924, "yacc": 0.1640022099018097, "abs_pressure": 0.0, "fields_updated": 7167, "zgyro": 0.006906932685524225, "pressure_alt": 0.09932710230350494, "mavpackettype": "HIGHRES_IMU", "ymag": -0.22760841250419617, "time_usec": 45954428, "temperature": 32.0}
{"xgyro": -3.292520341346972e-05, "zmag": -0.4185415804386139, "ygyro": -0.01191710401326418, "xmag": -0.003410736797377467, "diff_pressure": 0.0, "zacc": -9.776649475097656, "xacc": -0.2677743136882782, "yacc": 0.13901667296886444, "abs_pressure": 0.0, "fields_updated": 7167, "zgyro": 0.006286260671913624, "pressure_alt": 0.05423603951931, "mavpackettype": "HIGHRES_IMU", "ymag": -0.2193620651960373, "time_usec": 45971707, "temperature": 32.0}
{"xgyro": -0.0047627827152609825, "zmag": -0.4372938573360443, "ygyro": -0.00946197658777237, "xmag": 0.006387802772223949, "diff_pressure": 0.0, "zacc": -9.876195907592773, "xacc": -0.2678064703941345, "yacc": 0.07665808498859406, "abs_pressure": 0.0, "fields_updated": 7167, "zgyro": 0.0033369387965649366, "pressure_alt": 0.07646400481462479, "mavpackettype": "HIGHRES_IMU", "ymag": -0.21774868667125702, "time_usec": 45994219, "temperature": 32.0}
{"xgyro": 0.004128595814108849, "zmag": -0.42171555757522583, "ygyro": -0.0006955188582651317, "xmag": 0.00173858180642128, "diff_pressure": 0.0, "zacc": -9.82725715637207, "xacc": -0.3321419656276703, "yacc": 0.2054755687713623, "abs_pressure": 0.0, "fields_updated": 7167, "zgyro": 0.0040689255110919476, "pressure_alt": 0.06947806477546692, "mavpackettype": "HIGHRES_IMU", "ymag": -0.21900326013565063, "time_usec": 46014365, "temperature": 32.0}
{"xgyro": -0.0034030505921691656, "zmag": -0.4502720534801483, "ygyro": -0.006615908350795507, "xmag": -0.011671696789562702, "diff_pressure": 0.0, "zacc": -9.797883987426758, "xacc": -0.23212690651416779, "yacc": 0.038244616240262985, "abs_pressure": 0.0, "fields_updated": 7167, "zgyro": 0.0006154831498861313, "pressure_alt": 0.016131063923239708, "mavpackettype": "HIGHRES_IMU", "ymag": -0.21357114613056183, "time_usec": 46034578, "temperature": 32.0}
{"xgyro": 0.0003924409975297749, "zmag": -0.4174753427505493, "ygyro": -0.00133226509205997, "xmag": 0.002658265409991145, "diff_pressure": 0.0, "zacc": -9.823742866516113, "xacc": -0.26946935057640076, "yacc": 0.1900807023048401, "abs_pressure": 0.0, "fields_updated": 7167, "zgyro": 0.0048472341150045395, "pressure_alt": -0.018163293600082397, "mavpackettype": "HIGHRES_IMU", "ymag": -0.2138400822877884, "time_usec": 46052958, "temperature": 32.0}
{"xgyro": -0.0014539366820827127, "zmag": -0.42485007643699646, "ygyro": -0.0037105658557265997, "xmag": 0.006178148556500673, "diff_pressure": 0.0, "zacc": -9.854775428771973, "xacc": -0.36772656440734863, "yacc": 0.16185280680656433, "abs_pressure": 0.0, "fields_updated": 7167, "zgyro": -0.0012251108419150114, "pressure_alt": -0.02197377197444439, "mavpackettype": "HIGHRES_IMU", "ymag": -0.21478106081485748, "time_usec": 46071680, "temperature": 32.0}
{"xgyro": -0.003072533756494522, "zmag": -0.4183836877346039, "ygyro": -0.007782316301018, "xmag": -0.002367380540817976, "diff_pressure": 0.0, "zacc": -9.806438446044922, "xacc": -0.3008438050746918, "yacc": 0.1278892159461975, "abs_pressure": 0.0, "fields_updated": 7167, "zgyro": -0.010026120580732822, "pressure_alt": 0.09170606732368469, "mavpackettype": "HIGHRES_IMU", "ymag": -0.2124471664428711, "time_usec": 46094192, "temperature": 32.0}
{"xgyro": 0.0030118455179035664, "zmag": -0.39368587732315063, "ygyro": -0.0008221615571528673, "xmag": -0.008886098861694336, "diff_pressure": 0.0, "zacc": -9.792707443237305, "xacc": -0.21100500226020813, "yacc": 0.18012425303459167, "abs_pressure": 0.0, "fields_updated": 7167, "zgyro": -0.008465640246868134, "pressure_alt": 0.011050411500036716, "mavpackettype": "HIGHRES_IMU", "ymag": -0.19487787783145905, "time_usec": 46115078, "temperature": 32.0}
{"xgyro": -0.001014801557175815, "zmag": -0.43712347745895386, "ygyro": -0.0062969583086669445, "xmag": 0.013835160061717033, "diff_pressure": 0.0, "zacc": -9.8071870803833, "xacc": -0.23262932896614075, "yacc": 0.20774130523204803, "abs_pressure": 0.0, "fields_updated": 7167, "zgyro": -0.01000033225864172, "pressure_alt": -0.15597467124462128, "mavpackettype": "HIGHRES_IMU", "ymag": -0.20216327905654907, "time_usec": 46134791, "temperature": 32.0}
{"xgyro": 0.002680091420188546, "zmag": -0.42529189586639404, "ygyro": -0.005463812034577131, "xmag": -0.006216340232640505, "diff_pressure": 0.0, "zacc": -9.83857250213623, "xacc": -0.17592836916446686, "yacc": 0.04713355749845505, "abs_pressure": 0.0, "fields_updated": 7167, "zgyro": -0.0046690283343195915, "pressure_alt": 0.017401227727532387, "mavpackettype": "HIGHRES_IMU", "ymag": -0.2267935574054718, "time_usec": 46154557, "temperature": 32.0}
{"xgyro": 0.002886613830924034, "zmag": -0.4307125508785248, "ygyro": -0.01028522476553917, "xmag": -0.0039559886790812016, "diff_pressure": 0.0, "zacc": -9.84359359741211, "xacc": -0.3455519676208496, "yacc": 0.10690271854400635, "abs_pressure": 0.0, "fields_updated": 7167, "zgyro": -0.0011182184098288417, "pressure_alt": -0.07277999818325043, "mavpackettype": "HIGHRES_IMU", "ymag": -0.21419253945350647, "time_usec": 46174641, "temperature": 32.0}
{"xgyro": 0.00469864159822464, "zmag": -0.44618532061576843, "ygyro": -0.008856462314724922, "xmag": -0.010942819528281689, "diff_pressure": 0.0, "zacc": -9.896374702453613, "xacc": -0.15594162046909332, "yacc": 0.1727653443813324, "abs_pressure": 0.0, "fields_updated": 7167, "zgyro": 0.005374990403652191, "pressure_alt": 0.08980080485343933, "mavpackettype": "HIGHRES_IMU", "ymag": -0.20629559457302094, "time_usec": 46195067, "temperature": 32.0}
{"xgyro": 0.004135287832468748, "zmag": -0.4281651973724365, "ygyro": -0.007904019206762314, "xmag": -0.009837108664214611, "diff_pressure": 0.0, "zacc": -9.869420051574707, "xacc": -0.2738712728023529, "yacc": 0.008040104992687702, "abs_pressure": 0.0, "fields_updated": 7167, "zgyro": 0.0017424043035134673, "pressure_alt": 0.16664652526378632, "mavpackettype": "HIGHRES_IMU", "ymag": -0.2083773910999298, "time_usec": 46213745, "temperature": 32.0}
{"xgyro": -0.004001046996563673, "zmag": -0.4039166271686554, "ygyro": -0.009196811355650425, "xmag": -0.018480859696865082, "diff_pressure": 0.0, "zacc": -9.834516525268555, "xacc": -0.4052038788795471, "yacc": 0.08188297599554062, "abs_pressure": 0.0, "fields_updated": 7167, "zgyro": -0.0035275465343147516, "pressure_alt": 0.0428045317530632, "mavpackettype": "HIGHRES_IMU", "ymag": -0.19781292974948883, "time_usec": 46233768, "temperature": 32.0}
{"xgyro": 0.003921481780707836, "zmag": -0.415323406457901, "ygyro": -0.009516236372292042, "xmag": 0.0031554081942886114, "diff_pressure": 0.0, "zacc": -9.877683639526367, "xacc": -0.1906699389219284, "yacc": 0.14430221915245056, "abs_pressure": 0.0, "fields_updated": 7167, "zgyro": 0.0005618715076707304, "pressure_alt": 0.01232057437300682, "mavpackettype": "HIGHRES_IMU", "ymag": -0.1998947113752365, "time_usec": 46257333, "temperature": 32.0}
{"xgyro": -0.0020829264540225267, "zmag": -0.43269410729408264, "ygyro": 0.0019515608437359333, "xmag": -0.0029194641392678022, "diff_pressure": 0.0, "zacc": -9.725449562072754, "xacc": -0.461567223072052, "yacc": 0.10410356521606445, "abs_pressure": 0.0, "fields_updated": 7167, "zgyro": -0.0039034332148730755, "pressure_alt": 0.04725011810660362, "mavpackettype": "HIGHRES_IMU", "ymag": -0.22255003452301025, "time_usec": 46271980, "temperature": 32.0}
{"xgyro": 0.002251249272376299, "zmag": -0.41654297709465027, "ygyro": -0.007744332775473595, "xmag": -0.011024770326912403, "diff_pressure": 0.0, "zacc": -9.986090660095215, "xacc": -0.1277342140674591, "yacc": 0.137518510222435, "abs_pressure": 0.0, "fields_updated": 7167, "zgyro": 0.003827467327937484, "pressure_alt": 0.05042553320527077, "mavpackettype": "HIGHRES_IMU", "ymag": -0.21325114369392395, "time_usec": 46294133, "temperature": 32.0}
{"xgyro": 0.0005183807807043195, "zmag": -0.4240960478782654, "ygyro": 0.0017113995272666216, "xmag": 0.0031234303023666143, "diff_pressure": 0.0, "zacc": -9.826228141784668, "xacc": -0.28578048944473267, "yacc": 0.20384284853935242, "abs_pressure": 0.0, "fields_updated": 7167, "zgyro": 0.0010046027600765228, "pressure_alt": 0.17363253235816956, "mavpackettype": "HIGHRES_IMU", "ymag": -0.20909744501113892, "time_usec": 46314784, "temperature": 32.0}
{"xgyro": 0.002581642474979162, "zmag": -0.4442652761936188, "ygyro": -0.0070812092162668705, "xmag": 0.0007742102025076747, "diff_pressure": 0.0, "zacc": -9.905967712402344, "xacc": -0.16491110622882843, "yacc": 0.12415647506713867, "abs_pressure": 0.0, "fields_updated": 7167, "zgyro": -0.0022735358215868473, "pressure_alt": 0.04979044944047928, "mavpackettype": "HIGHRES_IMU", "ymag": -0.21321994066238403, "time_usec": 46334958, "temperature": 32.0}
{"xgyro": -0.003754684468731284, "zmag": -0.42781582474708557, "ygyro": -0.00567409535869956, "xmag": 0.004351821728050709, "diff_pressure": 0.0, "zacc": -9.848006248474121, "xacc": -0.32157933712005615, "yacc": 0.2519274055957794, "abs_pressure": 0.0, "fields_updated": 7167, "zgyro": -0.004190996289253235, "pressure_alt": 0.13743238151073456, "mavpackettype": "HIGHRES_IMU", "ymag": -0.20931078493595123, "time_usec": 46354330, "temperature": 32.0}
{"xgyro": -0.00027989334193989635, "zmag": -0.441244512796402, "ygyro": 0.0005081638810224831, "xmag": -0.001115557737648487, "diff_pressure": 0.0, "zacc": -9.934066772460938, "xacc": -0.23720841109752655, "yacc": 0.04462815448641777, "abs_pressure": 0.0, "fields_updated": 7167, "zgyro": 0.006834497209638357, "pressure_alt": -0.06642923504114151, "mavpackettype": "HIGHRES_IMU", "ymag": -0.21038205921649933, "time_usec": 46377743, "temperature": 32.0}
{"xgyro": -0.0071021332405507565, "zmag": -0.42317256331443787, "ygyro": -0.012759893201291561, "xmag": -0.01320633478462696, "diff_pressure": 0.0, "zacc": -9.860784530639648, "xacc": -0.18266603350639343, "yacc": 0.11839555203914642, "abs_pressure": 0.0, "fields_updated": 7167, "zgyro": 0.000693312962539494, "pressure_alt": -0.009272174909710884, "mavpackettype": "HIGHRES_IMU", "ymag": -0.195156067609787, "time_usec": 46393119, "temperature": 32.0}
{"xgyro": 0.023767640814185143, "zmag": -0.4445790946483612, "ygyro": -0.0015966735081747174, "xmag": -0.024623719975352287, "diff_pressure": 0.0, "zacc": -13.483521461486816, "xacc": -0.37120312452316284, "yacc": 0.021090148016810417, "abs_pressure": 0.0, "fields_updated": 7167, "zgyro": -0.00035870762076228857, "pressure_alt": 0.10313762724399567, "mavpackettype": "HIGHRES_IMU", "ymag": -0.21135227382183075, "time_usec": 46415649, "temperature": 32.0}
{"xgyro": 0.08265580981969833, "zmag": -0.41479259729385376, "ygyro": 0.049551721662282944, "xmag": -0.005892647895962, "diff_pressure": 0.0, "zacc": -10.39301586151123, "xacc": -0.33933234214782715, "yacc": 0.10820391029119492, "abs_pressure": 0.0, "fields_updated": 7167, "zgyro": 0.00568243907764554, "pressure_alt": -0.0048266127705574036, "mavpackettype": "HIGHRES_IMU", "ymag": -0.20207563042640686, "time_usec": 46433390, "temperature": 32.0}
{"xgyro": 0.08547153323888779, "zmag": -0.4211806058883667, "ygyro": 0.0685458555817604, "xmag": 0.00815043319016695, "diff_pressure": 0.0, "zacc": -5.099406719207764, "xacc": -0.2732415199279785, "yacc": 0.12470908463001251, "abs_pressure": 0.0, "fields_updated": 7167, "zgyro": 0.005118276458233595, "pressure_alt": 0.018036309629678726, "mavpackettype": "HIGHRES_IMU", "ymag": -0.2380368709564209, "time_usec": 46454711, "temperature": 32.0}
{"xgyro": -0.07780908048152924, "zmag": -0.40809646248817444, "ygyro": -0.05624338984489441, "xmag": 0.0005462487461045384, "diff_pressure": 0.0, "zacc": -10.31950855255127, "xacc": 1.3221023082733154, "yacc": -1.7470557689666748, "abs_pressure": 0.0, "fields_updated": 7167, "zgyro": 0.0001528628054074943, "pressure_alt": 0.10186745226383209, "mavpackettype": "HIGHRES_IMU", "ymag": -0.23648881912231445, "time_usec": 46475685, "temperature": 32.0}
{"xgyro": 0.023409899324178696, "zmag": -0.41810816526412964, "ygyro": -0.03854725882411003, "xmag": -0.01741669699549675, "diff_pressure": 0.0, "zacc": -9.797699928283691, "xacc": 0.016501639038324356, "yacc": 0.6019222736358643, "abs_pressure": 0.0, "fields_updated": 7167, "zgyro": 5.5997083109105006e-05, "pressure_alt": 0.03327828645706177, "mavpackettype": "HIGHRES_IMU", "ymag": -0.2111223191022873, "time_usec": 46494364, "temperature": 32.0}
{"xgyro": -0.014754419215023518, "zmag": -0.4111481308937073, "ygyro": 0.00034330898779444396, "xmag": -0.004571464844048023, "diff_pressure": 0.0, "zacc": -9.915483474731445, "xacc": -0.268955796957016, "yacc": 0.10059240460395813, "abs_pressure": 0.0, "fields_updated": 7167, "zgyro": -0.0030091344378888607, "pressure_alt": 0.03899403288960457, "mavpackettype": "HIGHRES_IMU", "ymag": -0.21836842596530914, "time_usec": 46514979, "temperature": 32.0}
{"xgyro": -0.004815445747226477, "zmag": -0.4366246163845062, "ygyro": -0.009284025058150291, "xmag": -0.0148376589640975, "diff_pressure": 0.0, "zacc": -9.89079475402832, "xacc": -0.19669951498508453, "yacc": 0.1045127883553505, "abs_pressure": 0.0, "fields_updated": 7167, "zgyro": -0.0033494106028229, "pressure_alt": -0.008002014830708504, "mavpackettype": "HIGHRES_IMU", "ymag": -0.22493012249469757, "time_usec": 46534679, "temperature": 32.0}
{"xgyro": 0.0015942758182063699, "zmag": -0.4249204695224762, "ygyro": -0.016940368339419365, "xmag": 0.008717061951756477, "diff_pressure": 0.0, "zacc": -9.86330795288086, "xacc": -0.27505508065223694, "yacc": 0.19111298024654388, "abs_pressure": 0.0, "fields_updated": 7167, "zgyro": -0.00036843231646344066, "pressure_alt": 0.11710955202579498, "mavpackettype": "HIGHRES_IMU", "ymag": -0.21192467212677002, "time_usec": 46554698, "temperature": 32.0}
{"xgyro": 0.016449496150016785, "zmag": -0.43569085001945496, "ygyro": -0.008458423428237438, "xmag": -0.013328286819159985, "diff_pressure": 0.0, "zacc": -10.424722671508789, "xacc": -0.3499220907688141, "yacc": 0.26654383540153503, "abs_pressure": 0.0, "fields_updated": 7167, "zgyro": 0.0021008006297051907, "pressure_alt": 0.11901481449604034, "mavpackettype": "HIGHRES_IMU", "ymag": -0.19775620102882385, "time_usec": 46571166, "temperature": 32.0}
{"xgyro": 0.05141753703355789, "zmag": -0.4258285164833069, "ygyro": 0.03705587238073349, "xmag": -0.006662204395979643, "diff_pressure": 0.0, "zacc": -11.958380699157715, "xacc": -0.2714538872241974, "yacc": 0.15327495336532593, "abs_pressure": 0.0, "fields_updated": 7167, "zgyro": -0.001077925437130034, "pressure_alt": -0.009907254949212074, "mavpackettype": "HIGHRES_IMU", "ymag": -0.21621441841125488, "time_usec": 46593776, "temperature": 32.0}
{"xgyro": 0.06816127896308899, "zmag": -0.4274956285953522, "ygyro": 0.059286560863256454, "xmag": 0.0008896462968550622, "diff_pressure": 0.0, "zacc": -13.354208946228027, "xacc": -0.28432697057724, "yacc": 0.19843123853206635, "abs_pressure": 0.0, "fields_updated": 7167, "zgyro": -0.005423898342996836, "pressure_alt": 0.045979950577020645, "mavpackettype": "HIGHRES_IMU", "ymag": -0.2204839438199997, "time_usec": 46613662, "temperature": 32.0}
{"xgyro": 0.06790497899055481, "zmag": -0.42159682512283325, "ygyro": 0.0889982283115387, "xmag": 0.001051329541951418, "diff_pressure": 0.0, "zacc": -14.381444931030273, "xacc": -0.3005889654159546, "yacc": 0.25122952461242676, "abs_pressure": 0.0, "fields_updated": 7167, "zgyro": 0.002848379546776414, "pressure_alt": 0.08916572481393814, "mavpackettype": "HIGHRES_IMU", "ymag": -0.2350730150938034, "time_usec": 46635030, "temperature": 32.0}
{"xgyro": 0.05724092945456505, "zmag": -0.42333000898361206, "ygyro": 0.10758492350578308, "xmag": -0.008146350271999836, "diff_pressure": 0.0, "zacc": -15.045061111450195, "xacc": -0.2654724717140198, "yacc": 0.10265371948480606, "abs_pressure": 0.0, "fields_updated": 7167, "zgyro": -0.006648222450166941, "pressure_alt": 0.0021592748817056417, "mavpackettype": "HIGHRES_IMU", "ymag": -0.19848215579986572, "time_usec": 46653707, "temperature": 32.0}
{"xgyro": 0.04310807213187218, "zmag": -0.42992547154426575, "ygyro": 0.11808046698570251, "xmag": 0.005887411534786224, "diff_pressure": 0.0, "zacc": -15.395835876464844, "xacc": -0.22053475677967072, "yacc": 0.07922982424497604, "abs_pressure": 0.0, "fields_updated": 7167, "zgyro": 0.005714651197195053, "pressure_alt": 0.08662537485361099, "mavpackettype": "HIGHRES_IMU", "ymag": -0.21563757956027985, "time_usec": 46675265, "temperature": 32.0}
{"xgyro": 0.032172635197639465, "zmag": -0.4395916163921356, "ygyro": 0.11100158840417862, "xmag": 0.011189361102879047, "diff_pressure": 0.0, "zacc": -15.171663284301758, "xacc": -0.2988276183605194, "yacc": 0.08185833692550659, "abs_pressure": 0.0, "fields_updated": 7167, "zgyro": -0.00144945306237787, "pressure_alt": 0.018671391531825066, "mavpackettype": "HIGHRES_IMU", "ymag": -0.20941893756389618, "time_usec": 46692806, "temperature": 32.0}
{"xgyro": 0.02374647743999958, "zmag": -0.40740469098091125, "ygyro": 0.10787336528301239, "xmag": 0.014950561337172985, "diff_pressure": 0.0, "zacc": -14.535979270935059, "xacc": -0.15490029752254486, "yacc": 0.13231778144836426, "abs_pressure": 0.0, "fields_updated": 7167, "zgyro": -0.004359045065939426, "pressure_alt": 0.1888747364282608, "mavpackettype": "HIGHRES_IMU", "ymag": -0.21888065338134766, "time_usec": 46726231, "temperature": 32.0}
{"xgyro": 0.02241402491927147, "zmag": -0.4314422905445099, "ygyro": 0.10525018721818924, "xmag": 0.011659933254122734, "diff_pressure": 0.0, "zacc": -14.27987289428711, "xacc": -0.16044406592845917, "yacc": 0.17254556715488434, "abs_pressure": 0.0, "fields_updated": 7167, "zgyro": -0.005544524174183607, "pressure_alt": 0.09996218979358673, "mavpackettype": "HIGHRES_IMU", "ymag": -0.19158034026622772, "time_usec": 46733363, "temperature": 32.0}
{"xgyro": 0.0071412199176847935, "zmag": -0.4443960189819336, "ygyro": 0.0973200723528862, "xmag": 0.00548965111374855, "diff_pressure": 0.0, "zacc": -13.74585247039795, "xacc": -0.1941586583852768, "yacc": 0.02641613408923149, "abs_pressure": 0.0, "fields_updated": 7167, "zgyro": -0.002314566168934107, "pressure_alt": 0.03391336649656296, "mavpackettype": "HIGHRES_IMU", "ymag": -0.2104417234659195, "time_usec": 46752724, "temperature": 32.0}
{"xgyro": 0.0036469774786382914, "zmag": -0.44953206181526184, "ygyro": 0.09043947607278824, "xmag": -0.01497664488852024, "diff_pressure": 0.0, "zacc": -13.437591552734375, "xacc": -0.20476526021957397, "yacc": 0.12190425395965576, "abs_pressure": 0.0, "fields_updated": 7167, "zgyro": -0.010551707819104195, "pressure_alt": 0.01232057437300682, "mavpackettype": "HIGHRES_IMU", "ymag": -0.22740210592746735, "time_usec": 46772539, "temperature": 32.0}
{"xgyro": 0.020636877045035362, "zmag": -0.42207249999046326, "ygyro": 0.055978741496801376, "xmag": -0.011726689524948597, "diff_pressure": 0.0, "zacc": -12.820832252502441, "xacc": -0.1391005665063858, "yacc": 0.1257268488407135, "abs_pressure": 0.0, "fields_updated": 7167, "zgyro": -0.0024623405188322067, "pressure_alt": 0.02438713051378727, "mavpackettype": "HIGHRES_IMU", "ymag": -0.21851633489131927, "time_usec": 46795353, "temperature": 32.0}
{"xgyro": 0.011630835011601448, "zmag": -0.42104029655456543, "ygyro": 0.041829854249954224, "xmag": -0.0005946788005530834, "diff_pressure": 0.0, "zacc": -12.743659019470215, "xacc": -0.26048919558525085, "yacc": 0.18998464941978455, "abs_pressure": 0.0, "fields_updated": 7167, "zgyro": -0.0010597117943689227, "pressure_alt": 0.28159862756729126, "mavpackettype": "HIGHRES_IMU", "ymag": -0.2193468064069748, "time_usec": 46812849, "temperature": 32.0}
{"xgyro": 0.0002757540496531874, "zmag": -0.43125414848327637, "ygyro": 0.04370333254337311, "xmag": 0.022999966517090797, "diff_pressure": 0.0, "zacc": -12.676464080810547, "xacc": -0.044151272624731064, "yacc": 0.09118924289941788, "abs_pressure": 0.0, "fields_updated": 7167, "zgyro": 0.005967896431684494, "pressure_alt": 0.3031919598579407, "mavpackettype": "HIGHRES_IMU", "ymag": -0.2157813161611557, "time_usec": 46832204, "temperature": 32.0}
{"xgyro": 0.003903800854459405, "zmag": -0.4307108521461487, "ygyro": 0.0303361639380455, "xmag": 0.01817283406853676, "diff_pressure": 0.0, "zacc": -12.77800464630127, "xacc": -0.2050837129354477, "yacc": 0.1832733303308487, "abs_pressure": 0.0, "fields_updated": 7167, "zgyro": 0.004045968409627676, "pressure_alt": 0.11710955202579498, "mavpackettype": "HIGHRES_IMU", "ymag": -0.23538967967033386, "time_usec": 46849319, "temperature": 32.0}
{"xgyro": 0.0021315389312803745, "zmag": -0.4212230145931244, "ygyro": 0.024856606498360634, "xmag": -0.002768702106550336, "diff_pressure": 0.0, "zacc": -13.01770305633545, "xacc": -0.22918666899204254, "yacc": 0.22365537285804749, "abs_pressure": 0.0, "fields_updated": 7167, "zgyro": -0.0038620128761976957, "pressure_alt": 0.37813395261764526, "mavpackettype": "HIGHRES_IMU", "ymag": -0.2307986319065094, "time_usec": 46870251, "temperature": 32.0}
{"xgyro": 0.008634339086711407, "zmag": -0.42946410179138184, "ygyro": 0.00926471408456564, "xmag": 0.007087315432727337, "diff_pressure": 0.0, "zacc": -12.663814544677734, "xacc": -0.10582488775253296, "yacc": 0.25215089321136475, "abs_pressure": 0.0, "fields_updated": 7167, "zgyro": -0.001583213685080409, "pressure_alt": 0.43148282170295715, "mavpackettype": "HIGHRES_IMU", "ymag": -0.2219599485397339, "time_usec": 46892226, "temperature": 32.0}
{"xgyro": -0.002325496170669794, "zmag": -0.41638338565826416, "ygyro": -0.004464520141482353, "xmag": 0.007314461283385754, "diff_pressure": 0.0, "zacc": -12.357763290405273, "xacc": -0.19510556757450104, "yacc": 0.11213219910860062, "abs_pressure": 0.0, "fields_updated": 7167, "zgyro": 0.007187283132225275, "pressure_alt": 0.3050972819328308, "mavpackettype": "HIGHRES_IMU", "ymag": -0.21940341591835022, "time_usec": 46911625, "temperature": 32.0}
{"xgyro": -0.003596283495426178, "zmag": -0.430057555437088, "ygyro": -0.014376671984791756, "xmag": 0.02114945277571678, "diff_pressure": 0.0, "zacc": -11.793183326721191, "xacc": -0.14258144795894623, "yacc": 0.05549515783786774, "abs_pressure": 0.0, "fields_updated": 7167, "zgyro": 0.002243438269942999, "pressure_alt": 0.32796087861061096, "mavpackettype": "HIGHRES_IMU", "ymag": -0.2301904559135437, "time_usec": 46935757, "temperature": 32.0}
{"xgyro": 0.002346274210140109, "zmag": -0.4330398440361023, "ygyro": -0.03244780749082565, "xmag": 0.028170425444841385, "diff_pressure": 0.0, "zacc": -11.684992790222168, "xacc": -0.19613920152187347, "yacc": 0.0775730162858963, "abs_pressure": 0.0, "fields_updated": 7167, "zgyro": 0.0003632560255937278, "pressure_alt": 0.46768397092819214, "mavpackettype": "HIGHRES_IMU", "ymag": -0.20540741086006165, "time_usec": 46955273, "temperature": 32.0}
{"xgyro": -0.005496538709849119, "zmag": -0.45023050904273987, "ygyro": -0.03398430719971657, "xmag": 0.0033342582173645496, "diff_pressure": 0.0, "zacc": -11.29557991027832, "xacc": -0.11777494102716446, "yacc": 0.11462932825088501, "abs_pressure": 0.0, "fields_updated": 7167, "zgyro": 0.0013467250391840935, "pressure_alt": 0.44926583766937256, "mavpackettype": "HIGHRES_IMU", "ymag": -0.22960861027240753, "time_usec": 46975572, "temperature": 32.0}
{"xgyro": -0.02323886565864086, "zmag": -0.42736542224884033, "ygyro": -0.04263441637158394, "xmag": 0.00626589497551322, "diff_pressure": 0.0, "zacc": -10.48653507232666, "xacc": -0.09080839902162552, "yacc": 0.13806863129138947, "abs_pressure": 0.0, "fields_updated": 7167, "zgyro": 0.0041088806465268135, "pressure_alt": 0.3571755588054657, "mavpackettype": "HIGHRES_IMU", "ymag": -0.20934221148490906, "time_usec": 46993068, "temperature": 32.0}
{"xgyro": -0.021686041727662086, "zmag": -0.4220419228076935, "ygyro": -0.05098114162683487, "xmag": 0.005923532880842686, "diff_pressure": 0.0, "zacc": -10.003961563110352, "xacc": -0.1638949066400528, "yacc": 0.1010640487074852, "abs_pressure": 0.0, "fields_updated": 7167, "zgyro": 0.0013025564840063453, "pressure_alt": 0.48229148983955383, "mavpackettype": "HIGHRES_IMU", "ymag": -0.22680823504924774, "time_usec": 47012387, "temperature": 32.0}
{"xgyro": -0.015031571500003338, "zmag": -0.4160712659358978, "ygyro": -0.05650490149855614, "xmag": 0.024627970531582832, "diff_pressure": 0.0, "zacc": -9.50757122039795, "xacc": -0.19264833629131317, "yacc": 0.20847028493881226, "abs_pressure": 0.0, "fields_updated": 7167, "zgyro": -0.003462253836914897, "pressure_alt": 0.5254790782928467, "mavpackettype": "HIGHRES_IMU", "ymag": -0.2129819095134735, "time_usec": 47032351, "temperature": 32.0}
{"xgyro": -0.013321485370397568, "zmag": -0.4437454044818878, "ygyro": -0.056116074323654175, "xmag": 0.002126137027516961, "diff_pressure": 0.0, "zacc": -8.949485778808594, "xacc": -0.19339099526405334, "yacc": 0.15843534469604492, "abs_pressure": 0.0, "fields_updated": 7167, "zgyro": -0.0011188755743205547, "pressure_alt": 0.5197630524635315, "mavpackettype": "HIGHRES_IMU", "ymag": -0.21314910054206848, "time_usec": 47057207, "temperature": 32.0}
{"xgyro": -0.009160387329757214, "zmag": -0.4412150979042053, "ygyro": -0.0470067635178566, "xmag": 0.006052184384316206, "diff_pressure": 0.0, "zacc": -8.72236442565918, "xacc": -0.22034461796283722, "yacc": 0.2048071324825287, "abs_pressure": 0.0, "fields_updated": 7167, "zgyro": -0.000664492545183748, "pressure_alt": 0.5800989270210266, "mavpackettype": "HIGHRES_IMU", "ymag": -0.21844328939914703, "time_usec": 47074810, "temperature": 32.0}
{"xgyro": -0.031130600720643997, "zmag": -0.434688925743103, "ygyro": -0.05624302476644516, "xmag": -0.008441319689154625, "diff_pressure": 0.0, "zacc": -8.33759880065918, "xacc": -0.18986187875270844, "yacc": 0.17600266635417938, "abs_pressure": 0.0, "fields_updated": 7167, "zgyro": -0.010260152630507946, "pressure_alt": 0.5985172986984253, "mavpackettype": "HIGHRES_IMU", "ymag": -0.20375794172286987, "time_usec": 47092151, "temperature": 32.0}
{"xgyro": -0.032950956374406815, "zmag": -0.43527331948280334, "ygyro": -0.06425856053829193, "xmag": -0.014511829242110252, "diff_pressure": 0.0, "zacc": -8.111128807067871, "xacc": -0.11324235796928406, "yacc": -0.015398235060274601, "abs_pressure": 0.0, "fields_updated": 7167, "zgyro": 0.0034358242992311716, "pressure_alt": 0.5254790782928467, "mavpackettype": "HIGHRES_IMU", "ymag": -0.21981459856033325, "time_usec": 47111878, "temperature": 32.0}
{"xgyro": -0.02463591657578945, "zmag": -0.4142903685569763, "ygyro": -0.05697983130812645, "xmag": 0.0031613351311534643, "diff_pressure": 0.0, "zacc": -7.997432708740234, "xacc": -0.21423789858818054, "yacc": 0.13650062680244446, "abs_pressure": 0.0, "fields_updated": 7167, "zgyro": 0.0025094044394791126, "pressure_alt": 0.37813395261764526, "mavpackettype": "HIGHRES_IMU", "ymag": -0.20709912478923798, "time_usec": 47131139, "temperature": 32.0}
{"xgyro": -0.02658524550497532, "zmag": -0.44080039858818054, "ygyro": -0.05519634857773781, "xmag": -0.005926812067627907, "diff_pressure": 0.0, "zacc": -8.127717971801758, "xacc": -0.12069404870271683, "yacc": 0.16601280868053436, "abs_pressure": 0.0, "fields_updated": 7167, "zgyro": 0.007927165366709232, "pressure_alt": 0.533100426197052, "mavpackettype": "HIGHRES_IMU", "ymag": -0.20604217052459717, "time_usec": 47154647, "temperature": 32.0}
{"xgyro": -0.02741069160401821, "zmag": -0.43931469321250916, "ygyro": -0.06307302415370941, "xmag": -0.002683329628780484, "diff_pressure": 0.0, "zacc": -8.565398216247559, "xacc": -0.0788794606924057, "yacc": 0.10466861724853516, "abs_pressure": 0.0, "fields_updated": 7167, "zgyro": -0.004280034452676773, "pressure_alt": 0.6283678412437439, "mavpackettype": "HIGHRES_IMU", "ymag": -0.2241368591785431, "time_usec": 47175105, "temperature": 32.0}
{"xgyro": -0.023254988715052605, "zmag": -0.4253704845905304, "ygyro": -0.05008009076118469, "xmag": -0.0014144694432616234, "diff_pressure": 0.0, "zacc": -8.990445137023926, "xacc": -0.11945287138223648, "yacc": 0.08631370216608047, "abs_pressure": 0.0, "fields_updated": 7167, "zgyro": -0.00011741465277737007, "pressure_alt": 0.8398646712303162, "mavpackettype": "HIGHRES_IMU", "ymag": -0.21507596969604492, "time_usec": 47194746, "temperature": 32.0}
{"xgyro": 0.006406405940651894, "zmag": -0.4371036887168884, "ygyro": -0.04426655173301697, "xmag": 0.009732226841151714, "diff_pressure": 0.0, "zacc": -9.491907119750977, "xacc": -0.2860400378704071, "yacc": 0.008133400231599808, "abs_pressure": 0.0, "fields_updated": 7167, "zgyro": -0.009491760283708572, "pressure_alt": 0.8303377032279968, "mavpackettype": "HIGHRES_IMU", "ymag": -0.22583110630512238, "time_usec": 47213280, "temperature": 32.0}
{"xgyro": -0.02485007792711258, "zmag": -0.4175468683242798, "ygyro": -0.04969564080238342, "xmag": -0.002296222373843193, "diff_pressure": 0.0, "zacc": -9.744094848632812, "xacc": -0.21631845831871033, "yacc": 0.018934912979602814, "abs_pressure": 0.0, "fields_updated": 7167, "zgyro": 0.0023184409365057945, "pressure_alt": 0.9027429223060608, "mavpackettype": "HIGHRES_IMU", "ymag": -0.2070617973804474, "time_usec": 47235174, "temperature": 32.0}
{"xgyro": -0.012371789664030075, "zmag": -0.4199123680591583, "ygyro": -0.054260559380054474, "xmag": 0.009335779584944248, "diff_pressure": 0.0, "zacc": -10.158102989196777, "xacc": -0.14268235862255096, "yacc": 0.12357985228300095, "abs_pressure": 0.0, "fields_updated": 7167, "zgyro": 0.005578246898949146, "pressure_alt": 0.7496762871742249, "mavpackettype": "HIGHRES_IMU", "ymag": -0.21449092030525208, "time_usec": 47253563, "temperature": 32.0}
{"xgyro": -0.013620310463011265, "zmag": -0.42147570848464966, "ygyro": -0.051388002932071686, "xmag": -0.006368888076394796, "diff_pressure": 0.0, "zacc": -10.355241775512695, "xacc": -0.1801479160785675, "yacc": 0.2471117079257965, "abs_pressure": 0.0, "fields_updated": 7167, "zgyro": -0.018136972561478615, "pressure_alt": 0.9230672717094421, "mavpackettype": "HIGHRES_IMU", "ymag": -0.20884031057357788, "time_usec": 47272056, "temperature": 32.0}
{"xgyro": -0.01897694170475006, "zmag": -0.4238623082637787, "ygyro": -0.035181909799575806, "xmag": -0.0061516426503658295, "diff_pressure": 0.0, "zacc": -10.606202125549316, "xacc": -0.21402700245380402, "yacc": 0.05792395398020744, "abs_pressure": 0.0, "fields_updated": 7167, "zgyro": -0.0029509400483220816, "pressure_alt": 0.7750813961029053, "mavpackettype": "HIGHRES_IMU", "ymag": -0.21170441806316376, "time_usec": 47291425, "temperature": 32.0}
{"xgyro": 0.007873520255088806, "zmag": -0.41209274530410767, "ygyro": -0.027707019820809364, "xmag": -0.008535772562026978, "diff_pressure": 0.0, "zacc": -10.666790008544922, "xacc": -0.1406863033771515, "yacc": 0.12479930371046066, "abs_pressure": 0.0, "fields_updated": 7167, "zgyro": 0.0041448259726166725, "pressure_alt": 0.8373241424560547, "mavpackettype": "HIGHRES_IMU", "ymag": -0.22372853755950928, "time_usec": 47312878, "temperature": 32.0}
{"xgyro": 0.021862676367163658, "zmag": -0.4255663752555847, "ygyro": -0.04344836249947548, "xmag": -0.00706235459074378, "diff_pressure": 0.0, "zacc": -10.598596572875977, "xacc": -0.020335132256150246, "yacc": 0.18444044888019562, "abs_pressure": 0.0, "fields_updated": 7167, "zgyro": 0.012422178871929646, "pressure_alt": 0.9878514409065247, "mavpackettype": "HIGHRES_IMU", "ymag": -0.20734336972236633, "time_usec": 47332609, "temperature": 32.0}
{"xgyro": -0.019521944224834442, "zmag": -0.4204104244709015, "ygyro": -0.036025483161211014, "xmag": 0.0032641026191413403, "diff_pressure": 0.0, "zacc": -10.178879737854004, "xacc": -0.052468154579401016, "yacc": 0.12137797474861145, "abs_pressure": 0.0, "fields_updated": 7167, "zgyro": 0.0022266742307692766, "pressure_alt": 0.8354187607765198, "mavpackettype": "HIGHRES_IMU", "ymag": -0.21783773601055145, "time_usec": 47354617, "temperature": 32.0}
{"xgyro": -0.016381124034523964, "zmag": -0.416032075881958, "ygyro": -0.02817652001976967, "xmag": 0.008918888866901398, "diff_pressure": 0.0, "zacc": -10.201190948486328, "xacc": -0.1577392965555191, "yacc": 0.0808960348367691, "abs_pressure": 0.0, "fields_updated": 7167, "zgyro": -0.0037367125041782856, "pressure_alt": 0.9764189124107361, "mavpackettype": "HIGHRES_IMU", "ymag": -0.2169671207666397, "time_usec": 47371835, "temperature": 32.0}
{"xgyro": -0.035595547407865524, "zmag": -0.44960567355155945, "ygyro": -0.03143789619207382, "xmag": 0.00272369128651917, "diff_pressure": 0.0, "zacc": -10.084115028381348, "xacc": -0.11264126747846603, "yacc": 0.13633416593074799, "abs_pressure": 0.0, "fields_updated": 7167, "zgyro": 0.006877101957798004, "pressure_alt": 0.9179862141609192, "mavpackettype": "HIGHRES_IMU", "ymag": -0.2171623706817627, "time_usec": 47393948, "temperature": 32.0}
{"xgyro": -0.0431704968214035, "zmag": -0.4320407211780548, "ygyro": -0.0294683575630188, "xmag": 0.0006836527609266341, "diff_pressure": 0.0, "zacc": -9.894579887390137, "xacc": -0.13810446858406067, "yacc": 0.10087832808494568, "abs_pressure": 0.0, "fields_updated": 7167, "zgyro": 0.007933547720313072, "pressure_alt": 1.0875691175460815, "mavpackettype": "HIGHRES_IMU", "ymag": -0.22869724035263062, "time_usec": 47413698, "temperature": 32.0}
{"xgyro": -0.04313678294420242, "zmag": -0.41035494208335876, "ygyro": -0.025766700506210327, "xmag": -0.0003815835516434163, "diff_pressure": 0.0, "zacc": -9.745901107788086, "xacc": -0.2512126863002777, "yacc": 0.1903485357761383, "abs_pressure": 0.0, "fields_updated": 7167, "zgyro": -0.0007893899455666542, "pressure_alt": 0.9865812063217163, "mavpackettype": "HIGHRES_IMU", "ymag": -0.22798259556293488, "time_usec": 47431126, "temperature": 32.0}
{"xgyro": -0.04014642909169197, "zmag": -0.41376179456710815, "ygyro": -0.02277221530675888, "xmag": 0.006228153593838215, "diff_pressure": 0.0, "zacc": -9.827046394348145, "xacc": -0.18929558992385864, "yacc": 0.14113262295722961, "abs_pressure": 0.0, "fields_updated": 7167, "zgyro": 0.0013752036029472947, "pressure_alt": 0.9287835359573364, "mavpackettype": "HIGHRES_IMU", "ymag": -0.1979159712791443, "time_usec": 47453036, "temperature": 32.0}
