{"vx": 0, "lon": 85455939, "time_boot_ms": 44825, "hdg": 8974, "relative_alt": -3, "vy": 0, "lat": 473977418, "mavpackettype": "GLOBAL_POSITION_INT", "alt": 488054, "vz": -3}
{"vx": 0, "lon": 85455939, "time_boot_ms": 44851, "hdg": 8974, "relative_alt": -2, "vy": 0, "lat": 473977418, "mavpackettype": "GLOBAL_POSITION_INT", "alt": 488055, "vz": -3}
{"vx": 0, "lon": 85455939, "time_boot_ms": 44866, "hdg": 8974, "relative_alt": -2, "vy": 0, "lat": 473977418, "mavpackettype": "GLOBAL_POSITION_INT", "alt": 488055, "vz": -3}
{"vx": 0, "lon": 85455939, "time_boot_ms": 44896, "hdg": 8974, "relative_alt": -3, "vy": 0, "lat": 473977418, "mavpackettype": "GLOBAL_POSITION_INT", "alt": 488054, "vz": -3}
{"vx": 0, "lon": 85455939, "time_boot_ms": 44915, "hdg": 8974, "relative_alt": -3, "vy": 0, "lat": 473977418, "mavpackettype": "GLOBAL_POSITION_INT", "alt": 488055, "vz": -3}
{"vx": 0, "lon": 85455939, "time_boot_ms": 44930, "hdg": 8974, "relative_alt": -3, "vy": 0, "lat": 473977418, "mavpackettype": "GLOBAL_POSITION_INT", "alt": 488055, "vz": -3}
{"vx": 0, "lon": 85455939, "time_boot_ms": 44943, "hdg": 8973, "relative_alt": -2, "vy": 0, "lat": 473977418, "mavpackettype": "GLOBAL_POSITION_INT", "alt": 488055, "vz": -3}
{"vx": 0, "lon": 85455939, "time_boot_ms": 44975, "hdg": 8973, "relative_alt": -1, "vy": 0, "lat": 473977418, "mavpackettype": "GLOBAL_POSITION_INT", "alt": 488056, "vz": -3}
{"vx": 0, "lon": 85455939, "time_boot_ms": 44985, "hdg": 8974, "relative_alt": -2, "vy": 0, "lat": 473977418, "mavpackettype": "GLOBAL_POSITION_INT", "alt": 488055, "vz": -3}
{"vx": 0, "lon": 85455939, "time_boot_ms": 45011, "hdg": 8974, "relative_alt": -2, "vy": 0, "lat": 473977418, "mavpackettype": "GLOBAL_POSITION_INT", "alt": 488055, "vz": -3}
{"vx": 0, "lon": 85455939, "time_boot_ms": 45033, "hdg": 8974, "relative_alt": -2, "vy": 0, "lat": 473977418, "mavpackettype": "GLOBAL_POSITION_INT", "alt": 488055, "vz": -3}
{"vx": 0, "lon": 85455939, "time_boot_ms": 45047, "hdg": 8974, "relative_alt": -2, "vy": 0, "lat": 473977418, "mavpackettype": "GLOBAL_POSITION_INT", "alt": 488055, "vz": -3}
{"vx": 0, "lon": 85455939, "time_boot_ms": 45071, "hdg": 8974, "relative_alt": -1, "vy": 0, "lat": 473977418, "mavpackettype": "GLOBAL_POSITION_INT", "alt": 488056, "vz": -3}
{"vx": 0, "lon": 85455939, "time_boot_ms": 45090, "hdg": 8974, "relative_alt": -1, "vy": 0, "lat": 473977418, "mavpackettype": "GLOBAL_POSITION_INT", "alt": 488056, "vz": -3}
{"vx": 0, "lon": 85455939, "time_boot_ms": 45114, "hdg": 8974, "relative_alt": -2, "vy": 0, "lat": 473977418, "mavpackettype": "GLOBAL_POSITION_INT", "alt": 488055, "vz": -3}
{"vx": 0, "lon": 85455939, "time_boot_ms": 45125, "hdg": 8974, "relative_alt": -2, "vy": 0, "lat": 473977418, "mavpackettype": "GLOBAL_POSITION_INT", "alt": 488055, "vz": -3}
{"vx": 0, "lon": 85455939, "time_boot_ms": 45153, "hdg": 8974, "relative_alt": -2, "vy": 0, "lat": 473977418, "mavpackettype": "GLOBAL_POSITION_INT", "alt": 488055, "vz": -3}
{"vx": 0, "lon": 85455939, "time_boot_ms": 45176, "hdg": 8974, "relative_alt": -1, "vy": 0, "lat": 473977418, "mavpackettype": "GLOBAL_POSITION_INT", "alt": 488056, "vz": -3}
{"vx": 0, "lon": 85455939, "time_boot_ms": 45193, "hdg": 8974, "relative_alt": -1, "vy": 0, "lat": 473977418, "mavpackettype": "GLOBAL_POSITION_INT", "alt": 488056, "vz": -3}
{"vx": 0, "lon": 85455939, "time_boot_ms": 45207, "hdg": 8974, "relative_alt": -2, "vy": 0, "lat": 473977418, "mavpackettype": "GLOBAL_POSITION_INT", "alt": 488056, "vz": -3}
{"vx": 0, "lon": 85455939, "time_boot_ms": 45231, "hdg": 8974, "relative_alt": -2, "vy": 0, "lat": 473977418, "mavpackettype": "GLOBAL_POSITION_INT", "alt": 488055, "vz": -3}
{"vx": 0, "lon": 85455939, "time_boot_ms": 45243, "hdg": 8974, "relative_alt": -2, "vy": 0, "lat": 473977418, "mavpackettype": "GLOBAL_POSITION_INT", "alt": 488055, "vz": -3}
{"vx": 0, "lon": 85455939, "time_boot_ms": 45268, "hdg": 8974, "relative_alt": -2, "vy": 0, "lat": 473977418, "mavpackettype": "GLOBAL_POSITION_INT", "alt": 488055, "vz": -3}
{"vx": 0, "lon": 85455939, "time_boot_ms": 45293, "hdg": 8973, "relative_alt": -1, "vy": 0, "lat": 473977418, "mavpackettype": "GLOBAL_POSITION_INT", "alt": 488056, "vz": -3}
{"vx": 0, "lon": 85455939, "time_boot_ms": 45313, "hdg": 8973, "relative_alt": -2, "vy": 0, "lat": 473977418, "mavpackettype": "GLOBAL_POSITION_INT", "alt": 488056, "vz": -3}
{"vx": 0, "lon": 85455939, "time_boot_ms": 45328, "hdg": 8974, "relative_alt": -2, "vy": 0, "lat": 473977418, "mavpackettype": "GLOBAL_POSITION_INT", "alt": 488055, "vz": -3}
{"vx": 0, "lon": 85455939, "time_boot_ms": 45355, "hdg": 8974, "relative_alt": -2, "vy": 0, "lat": 473977418, "mavpackettype": "GLOBAL_POSITION_INT", "alt": 488055, "vz": -3}
{"vx": 0, "lon": 85455939, "time_boot_ms": 45368, "hdg": 8975, "relative_alt": -2, "vy": 0, "lat": 473977418, "mavpackettype": "GLOBAL_POSITION_INT", "alt": 488056, "vz": -3}
{"vx": 0, "lon": 85455939, "time_boot_ms": 45381, "hdg": 8975, "relative_alt": -2, "vy": 0, "lat": 473977418, "mavpackettype": "GLOBAL_POSITION_INT", "alt": 488056, "vz": -3}
{"vx": 0, "lon": 85455939, "time_boot_ms": 45413, "hdg": 8975, "relative_alt": -1, "vy": 0, "lat": 473977418, "mavpackettype": "GLOBAL_POSITION_INT", "alt": 488056, "vz": -3}
{"vx": 0, "lon": 85455939, "time_boot_ms": 45434, "hdg": 8975, "relative_alt": -2, "vy": 0, "lat": 473977418, "mavpackettype": "GLOBAL_POSITION_INT", "alt": 488055, "vz": -3}
{"vx": 0, "lon": 85455939, "time_boot_ms": 45446, "hdg": 8975, "relative_alt": -2, "vy": 0, "lat": 473977418, "mavpackettype": "GLOBAL_POSITION_INT", "alt": 488055, "vz": -3}
{"vx": 0, "lon": 85455939, "time_boot_ms": 45472, "hdg": 8974, "relative_alt": -2, "vy": 0, "lat": 473977418, "mavpackettype": "GLOBAL_POSITION_INT", "alt": 488055, "vz": -3}
{"vx": 0, "lon": 85455939, "time_boot_ms": 45485, "hdg": 8973, "relative_alt": -2, "vy": 0, "lat": 473977418, "mavpackettype": "GLOBAL_POSITION_INT", "alt": 488056, "vz": -3}
{"vx": 0, "lon": 85455939, "time_boot_ms": 45507, "hdg": 8972, "relative_alt": -1, "vy": 0, "lat": 473977418, "mavpackettype": "GLOBAL_POSITION_INT", "alt": 488056, "vz": -3}
{"vx": 0, "lon": 85455939, "time_boot_ms": 45528, "hdg": 8971, "relative_alt": -2, "vy": 0, "lat": 473977418, "mavpackettype": "GLOBAL_POSITION_INT", "alt": 488056, "vz": -3}
{"vx": 0, "lon": 85455939, "time_boot_ms": 45554, "hdg": 8971, "relative_alt": -2, "vy": 0, "lat": 473977418, "mavpackettype": "GLOBAL_POSITION_INT", "alt": 488055, "vz": -3}
{"vx": 0, "lon": 85455939, "time_boot_ms": 45576, "hdg": 8972, "relative_alt": -2, "vy": 0, "lat": 473977418, "mavpackettype": "GLOBAL_POSITION_INT", "alt": 488055, "vz": -3}
{"vx": 0, "lon": 85455939, "time_boot_ms": 45589, "hdg": 8972, "relative_alt": -2, "vy": 0, "lat": 473977418, "mavpackettype": "GLOBAL_POSITION_INT", "alt": 488055, "vz": -3}
{"vx": 0, "lon": 85455939, "time_boot_ms": 45601, "hdg": 8972, "relative_alt": -2, "vy": 0, "lat": 473977418, "mavpackettype": "GLOBAL_POSITION_INT", "alt": 488056, "vz": -3}
{"vx": 0, "lon": 85455939, "time_boot_ms": 45626, "hdg": 8972, "relative_alt": -1, "vy": 0, "lat": 473977418, "mavpackettype": "GLOBAL_POSITION_INT", "alt": 488056, "vz": -3}
{"vx": 0, "lon": 85455939, "time_boot_ms": 45649, "hdg": 8972, "relative_alt": -2, "vy": 0, "lat": 473977418, "mavpackettype": "GLOBAL_POSITION_INT", "alt": 488055, "vz": -3}
{"vx": 0, "lon": 85455939, "time_boot_ms": 45674, "hdg": 8973, "relative_alt": -2, "vy": 0, "lat": 473977418, "mavpackettype": "GLOBAL_POSITION_INT", "alt": 488055, "vz": -3}
{"vx": 0, "lon": 85455939, "time_boot_ms": 45697, "hdg": 8973, "relative_alt": -2, "vy": 0, "lat": 473977418, "mavpackettype": "GLOBAL_POSITION_INT", "alt": 488055, "vz": -3}
{"vx": 0, "lon": 85455939, "time_boot_ms": 45714, "hdg": 8973, "relative_alt": -2, "vy": 0, "lat": 473977418, "mavpackettype": "GLOBAL_POSITION_INT", "alt": 488056, "vz": -3}
{"vx": 0, "lon": 85455939, "time_boot_ms": 45730, "hdg": 8972, "relative_alt": -1, "vy": 0, "lat": 473977418, "mavpackettype": "GLOBAL_POSITION_INT", "alt": 488056, "vz": -3}
{"vx": 0, "lon": 85455939, "time_boot_ms": 45744, "hdg": 8972, "relative_alt": -2, "vy": 0, "lat": 473977418, "mavpackettype": "GLOBAL_POSITION_INT", "alt": 488056, "vz": -3}
{"vx": 0, "lon": 85455939, "time_boot_ms": 45768, "hdg": 8972, "relative_alt": -2, "vy": 0, "lat": 473977418, "mavpackettype": "GLOBAL_POSITION_INT", "alt": 488055, "vz": -3}
{"vx": 0, "lon": 85455939, "time_boot_ms": 45782, "hdg": 8972, "relative_alt": -2, "vy": 0, "lat": 473977418, "mavpackettype": "GLOBAL_POSITION_INT", "alt": 488055, "vz": -3}
{"vx": 0, "lon": 85455939, "time_boot_ms": 45814, "hdg": 8972, "relative_alt": -2, "vy": 0, "lat": 473977418, "mavpackettype": "GLOBAL_POSITION_INT", "alt": 488056, "vz": -3}
{"vx": 0, "lon": 85455939, "time_boot_ms": 45824, "hdg": 8972, "relative_alt": -1, "vy": 0, "lat": 473977418, "mavpackettype": "GLOBAL_POSITION_INT", "alt": 488056, "vz": -3}
{"vx": 0, "lon": 85455939, "time_boot_ms": 45847, "hdg": 8971, "relative_alt": -2, "vy": 0, "lat": 473977418, "mavpackettype": "GLOBAL_POSITION_INT", "alt": 488056, "vz": -3}
{"vx": 0, "lon": 85455939, "time_boot_ms": 45864, "hdg": 8971, "relative_alt": -2, "vy": 0, "lat": 473977418, "mavpackettype": "GLOBAL_POSITION_INT", "alt": 488055, "vz": -3}
{"vx": 0, "lon": 85455939, "time_boot_ms": 45888, "hdg": 8972, "relative_alt": -2, "vy": 0, "lat": 473977418, "mavpackettype": "GLOBAL_POSITION_INT", "alt": 488055, "vz": -3}
{"vx": 0, "lon": 85455939, "time_boot_ms": 45915, "hdg": 8971, "relative_alt": -2, "vy": 0, "lat": 473977418, "mavpackettype": "GLOBAL_POSITION_INT", "alt": 488056, "vz": -3}
{"vx": 0, "lon": 85455939, "time_boot_ms": 45927, "hdg": 8972, "relative_alt": -1, "vy": 0, "lat": 473977418, "mavpackettype": "GLOBAL_POSITION_INT", "alt": 488056, "vz": -3}
{"vx": 0, "lon": 85455939, "time_boot_ms": 45951, "hdg": 8971, "relative_alt": -2, "vy": 0, "lat": 473977418, "mavpackettype": "GLOBAL_POSITION_INT", "alt": 488055, "vz": -3}
{"vx": 0, "lon": 85455939, "time_boot_ms": 45964, "hdg": 8971, "relative_alt": -2, "vy": 0, "lat": 473977418, "mavpackettype": "GLOBAL_POSITION_INT", "alt": 488055, "vz": -3}
{"vx": 0, "lon": 85455939, "time_boot_ms": 45991, "hdg": 8971, "relative_alt": -2, "vy": 0, "lat": 473977418, "mavpackettype": "GLOBAL_POSITION_INT", "alt": 488055, "vz": -3}
{"vx": 0, "lon": 85455939, "time_boot_ms": 46015, "hdg": 8971, "relative_alt": -2, "vy": 0, "lat": 473977418, "mavpackettype": "GLOBAL_POSITION_INT", "alt": 488055, "vz": -3}
{"vx": 0, "lon": 85455939, "time_boot_ms": 46026, "hdg": 8971, "relative_alt": -2, "vy": 0, "lat": 473977418, "mavpackettype": "GLOBAL_POSITION_INT", "alt": 488056, "vz": -3}
{"vx": 0, "lon": 85455939, "time_boot_ms": 46048, "hdg": 8971, "relative_alt": -1, "vy": 0, "lat": 473977418, "mavpackettype": "GLOBAL_POSITION_INT", "alt": 488056, "vz": -3}
{"vx": 0, "lon": 85455939, "time_boot_ms": 46062, "hdg": 8972, "relative_alt": -2, "vy": 0, "lat": 473977418, "mavpackettype": "GLOBAL_POSITION_INT", "alt": 488055, "vz": -3}
{"vx": 0, "lon": 85455939, "time_boot_ms": 46087, "hdg": 8972, "relative_alt": -2, "vy": 0, "lat": 473977418, "mavpackettype": "GLOBAL_POSITION_INT", "alt": 488055, "vz": -3}
{"vx": 0, "lon": 85455939, "time_boot_ms": 46111, "hdg": 8971, "relative_alt": -2, "vy": 0, "lat": 473977418, "mavpackettype": "GLOBAL_POSITION_INT", "alt": 488055, "vz": -3}
{"vx": 0, "lon": 85455939, "time_boot_ms": 46134, "hdg": 8970, "relative_alt": -2, "vy": 0, "lat": 473977418, "mavpackettype": "GLOBAL_POSITION_INT", "alt": 488055, "vz": -3}
{"vx": 0, "lon": 85455939, "time_boot_ms": 46149, "hdg": 8969, "relative_alt": -2, "vy": 0, "lat": 473977418, "mavpackettype": "GLOBAL_POSITION_INT", "alt": 488056, "vz": -3}
{"vx": 0, "lon": 85455939, "time_boot_ms": 46174, "hdg": 8969, "relative_alt": -3, "vy": 0, "lat": 473977418, "mavpackettype": "GLOBAL_POSITION_INT", "alt": 488055, "vz": -2}
{"vx": 0, "lon": 85455939, "time_boot_ms": 46192, "hdg": 8969, "relative_alt": -3, "vy": 0, "lat": 473977418, "mavpackettype": "GLOBAL_POSITION_INT", "alt": 488055, "vz": -2}
{"vx": 0, "lon": 85455939, "time_boot_ms": 46213, "hdg": 8969, "relative_alt": -3, "vy": 0, "lat": 473977418, "mavpackettype": "GLOBAL_POSITION_INT", "alt": 488055, "vz": -3}
{"vx": 0, "lon": 85455939, "time_boot_ms": 46226, "hdg": 8970, "relative_alt": -2, "vy": 0, "lat": 473977418, "mavpackettype": "GLOBAL_POSITION_INT", "alt": 488055, "vz": -3}
{"vx": 0, "lon": 85455939, "time_boot_ms": 46257, "hdg": 8970, "relative_alt": -2, "vy": 0, "lat": 473977418, "mavpackettype": "GLOBAL_POSITION_INT", "alt": 488056, "vz": -3}
{"vx": 0, "lon": 85455939, "time_boot_ms": 46269, "hdg": 8970, "relative_alt": -2, "vy": 0, "lat": 473977418, "mavpackettype": "GLOBAL_POSITION_INT", "alt": 488055, "vz": -2}
{"vx": 0, "lon": 85455939, "time_boot_ms": 46294, "hdg": 8970, "relative_alt": -3, "vy": 0, "lat": 473977418, "mavpackettype": "GLOBAL_POSITION_INT", "alt": 488055, "vz": -2}
{"vx": 0, "lon": 85455939, "time_boot_ms": 46306, "hdg": 8969, "relative_alt": -3, "vy": 0, "lat": 473977418, "mavpackettype": "GLOBAL_POSITION_INT", "alt": 488055, "vz": -2}
{"vx": 0, "lon": 85455939, "time_boot_ms": 46331, "hdg": 8969, "relative_alt": -3, "vy": 0, "lat": 473977418, "mavpackettype": "GLOBAL_POSITION_INT", "alt": 488055, "vz": -2}
{"vx": 0, "lon": 85455939, "time_boot_ms": 46354, "hdg": 8969, "relative_alt": -2, "vy": 0, "lat": 473977418, "mavpackettype": "GLOBAL_POSITION_INT", "alt": 488055, "vz": -2}
{"vx": 0, "lon": 85455939, "time_boot_ms": 46377, "hdg": 8969, "relative_alt": 0, "vy": 0, "lat": 473977418, "mavpackettype": "GLOBAL_POSITION_INT", "alt": 488055, "vz": -2}
{"vx": 0, "lon": 85455939, "time_boot_ms": 46389, "hdg": 8968, "relative_alt": 0, "vy": 0, "lat": 473977418, "mavpackettype": "GLOBAL_POSITION_INT", "alt": 488055, "vz": -2}
{"vx": 0, "lon": 85455939, "time_boot_ms": 46410, "hdg": 8968, "relative_alt": 0, "vy": 0, "lat": 473977418, "mavpackettype": "GLOBAL_POSITION_INT", "alt": 488054, "vz": -2}
{"vx": 0, "lon": 85455939, "time_boot_ms": 46433, "hdg": 8969, "relative_alt": 0, "vy": 0, "lat": 473977418, "mavpackettype": "GLOBAL_POSITION_INT", "alt": 488055, "vz": -6}
{"vx": 0, "lon": 85455939, "time_boot_ms": 46445, "hdg": 8969, "relative_alt": 0, "vy": 0, "lat": 473977418, "mavpackettype": "GLOBAL_POSITION_INT", "alt": 488056, "vz": -7}
{"vx": 0, "lon": 85455939, "time_boot_ms": 46474, "hdg": 8970, "relative_alt": 1, "vy": 0, "lat": 473977418, "mavpackettype": "GLOBAL_POSITION_INT", "alt": 488057, "vz": -1}
{"vx": 0, "lon": 85455939, "time_boot_ms": 46485, "hdg": 8970, "relative_alt": 0, "vy": 0, "lat": 473977418, "mavpackettype": "GLOBAL_POSITION_INT", "alt": 488056, "vz": 2}
{"vx": 0, "lon": 85455939, "time_boot_ms": 46510, "hdg": 8971, "relative_alt": -2, "vy": 0, "lat": 473977418, "mavpackettype": "GLOBAL_POSITION_INT", "alt": 488053, "vz": 7}
{"vx": 0, "lon": 85455939, "time_boot_ms": 46534, "hdg": 8971, "relative_alt": -5, "vy": 0, "lat": 473977418, "mavpackettype": "GLOBAL_POSITION_INT", "alt": 488050, "vz": 10}
{"vx": 0, "lon": 85455939, "time_boot_ms": 46547, "hdg": 8971, "relative_alt": -7, "vy": 0, "lat": 473977418, "mavpackettype": "GLOBAL_POSITION_INT", "alt": 488048, "vz": 11}
{"vx": 0, "lon": 85455939, "time_boot_ms": 46572, "hdg": 8972, "relative_alt": -10, "vy": 0, "lat": 473977418, "mavpackettype": "GLOBAL_POSITION_INT", "alt": 488045, "vz": 11}
{"vx": 0, "lon": 85455939, "time_boot_ms": 46594, "hdg": 8971, "relative_alt": -10, "vy": 0, "lat": 473977418, "mavpackettype": "GLOBAL_POSITION_INT", "alt": 488044, "vz": 10}
{"vx": 0, "lon": 85455939, "time_boot_ms": 46613, "hdg": 8971, "relative_alt": -10, "vy": 0, "lat": 473977418, "mavpackettype": "GLOBAL_POSITION_INT", "alt": 488045, "vz": 7}
{"vx": 0, "lon": 85455939, "time_boot_ms": 46625, "hdg": 8970, "relative_alt": -10, "vy": 0, "lat": 473977418, "mavpackettype": "GLOBAL_POSITION_INT", "alt": 488045, "vz": 4}
{"vx": 0, "lon": 85455939, "time_boot_ms": 46653, "hdg": 8970, "relative_alt": -8, "vy": 0, "lat": 473977418, "mavpackettype": "GLOBAL_POSITION_INT", "alt": 488047, "vz": -5}
{"vx": 0, "lon": 85455939, "time_boot_ms": 46666, "hdg": 8970, "relative_alt": -6, "vy": 0, "lat": 473977418, "mavpackettype": "GLOBAL_POSITION_INT", "alt": 488049, "vz": -11}
{"vx": 0, "lon": 85455939, "time_boot_ms": 46692, "hdg": 8971, "relative_alt": 0, "vy": 0, "lat": 473977418, "mavpackettype": "GLOBAL_POSITION_INT", "alt": 488056, "vz": -25}
{"vx": 0, "lon": 85455939, "time_boot_ms": 46726, "hdg": 8969, "relative_alt": 13, "vy": 0, "lat": 473977418, "mavpackettype": "GLOBAL_POSITION_INT", "alt": 488068, "vz": -42}
{"vx": 0, "lon": 85455939, "time_boot_ms": 46733, "hdg": 8969, "relative_alt": 16, "vy": 0, "lat": 473977418, "mavpackettype": "GLOBAL_POSITION_INT", "alt": 488071, "vz": -45}
{"vx": 0, "lon": 85455939, "time_boot_ms": 46747, "hdg": 8969, "relative_alt": 23, "vy": 0, "lat": 473977418, "mavpackettype": "GLOBAL_POSITION_INT", "alt": 488079, "vz": -52}
{"vx": -1, "lon": 85455939, "time_boot_ms": 46772, "hdg": 8968, "relative_alt": 37, "vy": 0, "lat": 473977418, "mavpackettype": "GLOBAL_POSITION_INT", "alt": 488093, "vz": -63}
{"vx": -1, "lon": 85455939, "time_boot_ms": 46795, "hdg": 8968, "relative_alt": 53, "vy": 0, "lat": 473977418, "mavpackettype": "GLOBAL_POSITION_INT", "alt": 488108, "vz": -71}
{"vx": -1, "lon": 85455939, "time_boot_ms": 46805, "hdg": 8969, "relative_alt": 60, "vy": -1, "lat": 473977418, "mavpackettype": "GLOBAL_POSITION_INT", "alt": 488116, "vz": -75}
{"vx": -1, "lon": 85455938, "time_boot_ms": 46829, "hdg": 8968, "relative_alt": 79, "vy": -1, "lat": 473977418, "mavpackettype": "GLOBAL_POSITION_INT", "alt": 488135, "vz": -83}
{"vx": -1, "lon": 85455938, "time_boot_ms": 46842, "hdg": 8968, "relative_alt": 90, "vy": -1, "lat": 473977418, "mavpackettype": "GLOBAL_POSITION_INT", "alt": 488146, "vz": -87}
{"vx": -1, "lon": 85455938, "time_boot_ms": 46867, "hdg": 8968, "relative_alt": 126, "vy": -1, "lat": 473977418, "mavpackettype": "GLOBAL_POSITION_INT", "alt": 488182, "vz": -99}
{"vx": -2, "lon": 85455938, "time_boot_ms": 46882, "hdg": 8967, "relative_alt": 152, "vy": -2, "lat": 473977418, "mavpackettype": "GLOBAL_POSITION_INT", "alt": 488208, "vz": -107}
{"vx": -2, "lon": 85455938, "time_boot_ms": 46909, "hdg": 8968, "relative_alt": 193, "vy": -2, "lat": 473977418, "mavpackettype": "GLOBAL_POSITION_INT", "alt": 488249, "vz": -119}
{"vx": -2, "lon": 85455938, "time_boot_ms": 46931, "hdg": 8968, "relative_alt": 226, "vy": -3, "lat": 473977418, "mavpackettype": "GLOBAL_POSITION_INT", "alt": 488282, "vz": -127}
{"vx": -2, "lon": 85455938, "time_boot_ms": 46945, "hdg": 8968, "relative_alt": 246, "vy": -3, "lat": 473977418, "mavpackettype": "GLOBAL_POSITION_INT", "alt": 488302, "vz": -131}
{"vx": -2, "lon": 85455938, "time_boot_ms": 46970, "hdg": 8967, "relative_alt": 281, "vy": -3, "lat": 473977418, "mavpackettype": "GLOBAL_POSITION_INT", "alt": 488337, "vz": -137}
{"vx": -3, "lon": 85455938, "time_boot_ms": 46993, "hdg": 8968, "relative_alt": 314, "vy": -4, "lat": 473977418, "mavpackettype": "GLOBAL_POSITION_INT", "alt": 488370, "vz": -141}
{"vx": -3, "lon": 85455938, "time_boot_ms": 47003, "hdg": 8968, "relative_alt": 329, "vy": -4, "lat": 473977418, "mavpackettype": "GLOBAL_POSITION_INT", "alt": 488385, "vz": -142}
{"vx": -3, "lon": 85455938, "time_boot_ms": 47032, "hdg": 8968, "relative_alt": 371, "vy": -5, "lat": 473977418, "mavpackettype": "GLOBAL_POSITION_INT", "alt": 488427, "vz": -145}
{"vx": -3, "lon": 85455937, "time_boot_ms": 47057, "hdg": 8968, "relative_alt": 421, "vy": -5, "lat": 473977418, "mavpackettype": "GLOBAL_POSITION_INT", "alt": 488477, "vz": -148}
{"vx": -3, "lon": 85455937, "time_boot_ms": 47067, "hdg": 8968, "relative_alt": 444, "vy": -5, "lat": 473977418, "mavpackettype": "GLOBAL_POSITION_INT", "alt": 488500, "vz": -150}
{"vx": -4, "lon": 85455937, "time_boot_ms": 47092, "hdg": 8968, "relative_alt": 494, "vy": -6, "lat": 473977418, "mavpackettype": "GLOBAL_POSITION_INT", "alt": 488549, "vz": -151}
{"vx": -4, "lon": 85455937, "time_boot_ms": 47107, "hdg": 8969, "relative_alt": 521, "vy": -6, "lat": 473977418, "mavpackettype": "GLOBAL_POSITION_INT", "alt": 488577, "vz": -151}
{"vx": -4, "lon": 85455936, "time_boot_ms": 47133, "hdg": 8970, "relative_alt": 565, "vy": -6, "lat": 473977417, "mavpackettype": "GLOBAL_POSITION_INT", "alt": 488621, "vz": -148}
{"vx": -4, "lon": 85455936, "time_boot_ms": 47155, "hdg": 8970, "relative_alt": 599, "vy": -7, "lat": 473977417, "mavpackettype": "GLOBAL_POSITION_INT", "alt": 488655, "vz": -145}
{"vx": -4, "lon": 85455936, "time_boot_ms": 47170, "hdg": 8970, "relative_alt": 621, "vy": -7, "lat": 473977417, "mavpackettype": "GLOBAL_POSITION_INT", "alt": 488677, "vz": -143}
{"vx": -4, "lon": 85455936, "time_boot_ms": 47194, "hdg": 8969, "relative_alt": 656, "vy": -7, "lat": 473977417, "mavpackettype": "GLOBAL_POSITION_INT", "alt": 488712, "vz": -140}
{"vx": -4, "lon": 85455936, "time_boot_ms": 47207, "hdg": 8969, "relative_alt": 674, "vy": -7, "lat": 473977417, "mavpackettype": "GLOBAL_POSITION_INT", "alt": 488730, "vz": -139}
{"vx": -4, "lon": 85455935, "time_boot_ms": 47232, "hdg": 8970, "relative_alt": 707, "vy": -7, "lat": 473977417, "mavpackettype": "GLOBAL_POSITION_INT", "alt": 488762, "vz": -136}
{"vx": -4, "lon": 85455935, "time_boot_ms": 47244, "hdg": 8970, "relative_alt": 722, "vy": -8, "lat": 473977417, "mavpackettype": "GLOBAL_POSITION_INT", "alt": 488777, "vz": -135}
{"vx": -5, "lon": 85455935, "time_boot_ms": 47268, "hdg": 8970, "relative_alt": 752, "vy": -8, "lat": 473977417, "mavpackettype": "GLOBAL_POSITION_INT", "alt": 488807, "vz": -135}
{"vx": -5, "lon": 85455935, "time_boot_ms": 47281, "hdg": 8969, "relative_alt": 768, "vy": -8, "lat": 473977417, "mavpackettype": "GLOBAL_POSITION_INT", "alt": 488824, "vz": -135}
{"vx": -5, "lon": 85455934, "time_boot_ms": 47307, "hdg": 8969, "relative_alt": 803, "vy": -8, "lat": 473977417, "mavpackettype": "GLOBAL_POSITION_INT", "alt": 488859, "vz": -136}
{"vx": -5, "lon": 85455934, "time_boot_ms": 47332, "hdg": 8970, "relative_alt": 836, "vy": -8, "lat": 473977417, "mavpackettype": "GLOBAL_POSITION_INT", "alt": 488892, "vz": -137}
{"vx": -5, "lon": 85455934, "time_boot_ms": 47354, "hdg": 8971, "relative_alt": 866, "vy": -8, "lat": 473977416, "mavpackettype": "GLOBAL_POSITION_INT", "alt": 488922, "vz": -138}
{"vx": -5, "lon": 85455934, "time_boot_ms": 47367, "hdg": 8971, "relative_alt": 884, "vy": -8, "lat": 473977416, "mavpackettype": "GLOBAL_POSITION_INT", "alt": 488939, "vz": -139}
{"vx": -6, "lon": 85455933, "time_boot_ms": 47394, "hdg": 8971, "relative_alt": 921, "vy": -8, "lat": 473977416, "mavpackettype": "GLOBAL_POSITION_INT", "alt": 488977, "vz": -140}
{"vx": -6, "lon": 85455933, "time_boot_ms": 47409, "hdg": 8972, "relative_alt": 942, "vy": -8, "lat": 473977416, "mavpackettype": "GLOBAL_POSITION_INT", "alt": 488998, "vz": -141}
{"vx": -6, "lon": 85455933, "time_boot_ms": 47421, "hdg": 8972, "relative_alt": 959, "vy": -8, "lat": 473977416, "mavpackettype": "GLOBAL_POSITION_INT", "alt": 489015, "vz": -141}
{"vx": -5, "lon": 85455933, "time_boot_ms": 47450, "hdg": 8972, "relative_alt": 989, "vy": -8, "lat": 473977416, "mavpackettype": "GLOBAL_POSITION_INT", "alt": 489044, "vz": -139}
{"vx": -5, "lon": 85455932, "time_boot_ms": 47463, "hdg": 8972, "relative_alt": 1004, "vy": -8, "lat": 473977416, "mavpackettype": "GLOBAL_POSITION_INT", "alt": 489060, "vz": -139}
{"vx": -5, "lon": 85455932, "time_boot_ms": 47489, "hdg": 8972, "relative_alt": 1036, "vy": -7, "lat": 473977416, "mavpackettype": "GLOBAL_POSITION_INT", "alt": 489092, "vz": -138}
{"vx": -5, "lon": 85455932, "time_boot_ms": 47513, "hdg": 8972, "relative_alt": 1068, "vy": -7, "lat": 473977416, "mavpackettype": "GLOBAL_POSITION_INT", "alt": 489124, "vz": -138}
{"vx": -5, "lon": 85455932, "time_boot_ms": 47534, "hdg": 8972, "relative_alt": 1097, "vy": -7, "lat": 473977416, "mavpackettype": "GLOBAL_POSITION_INT", "alt": 489153, "vz": -139}
{"vx": -5, "lon": 85455932, "time_boot_ms": 47545, "hdg": 8972, "relative_alt": 1111, "vy": -7, "lat": 473977416, "mavpackettype": "GLOBAL_POSITION_INT", "alt": 489167, "vz": -139}
{"vx": -5, "lon": 85455931, "time_boot_ms": 47568, "hdg": 8973, "relative_alt": 1143, "vy": -7, "lat": 473977415, "mavpackettype": "GLOBAL_POSITION_INT", "alt": 489199, "vz": -139}
{"vx": -5, "lon": 85455931, "time_boot_ms": 47593, "hdg": 8973, "relative_alt": 1178, "vy": -7, "lat": 473977415, "mavpackettype": "GLOBAL_POSITION_INT", "alt": 489234, "vz": -140}
{"vx": -5, "lon": 85455931, "time_boot_ms": 47605, "hdg": 8973, "relative_alt": 1193, "vy": -7, "lat": 473977415, "mavpackettype": "GLOBAL_POSITION_INT", "alt": 489249, "vz": -140}
{"vx": -5, "lon": 85455931, "time_boot_ms": 47630, "hdg": 8974, "relative_alt": 1227, "vy": -7, "lat": 473977415, "mavpackettype": "GLOBAL_POSITION_INT", "alt": 489283, "vz": -140}
{"vx": -5, "lon": 85455930, "time_boot_ms": 47655, "hdg": 8974, "relative_alt": 1260, "vy": -6, "lat": 473977415, "mavpackettype": "GLOBAL_POSITION_INT", "alt": 489316, "vz": -140}
{"vx": -5, "lon": 85455930, "time_boot_ms": 47666, "hdg": 8974, "relative_alt": 1277, "vy": -6, "lat": 473977415, "mavpackettype": "GLOBAL_POSITION_INT", "alt": 489332, "vz": -140}
{"vx": -5, "lon": 85455930, "time_boot_ms": 47692, "hdg": 8975, "relative_alt": 1313, "vy": -6, "lat": 473977415, "mavpackettype": "GLOBAL_POSITION_INT", "alt": 489369, "vz": -140}
{"vx": -5, "lon": 85455930, "time_boot_ms": 47712, "hdg": 8975, "relative_alt": 1341, "vy": -6, "lat": 473977415, "mavpackettype": "GLOBAL_POSITION_INT", "alt": 489397, "vz": -140}
{"vx": -5, "lon": 85455930, "time_boot_ms": 47725, "hdg": 8974, "relative_alt": 1358, "vy": -6, "lat": 473977415, "mavpackettype": "GLOBAL_POSITION_INT", "alt": 489414, "vz": -140}
{"vx": -5, "lon": 85455930, "time_boot_ms": 47748, "hdg": 8974, "relative_alt": 1390, "vy": -6, "lat": 473977415, "mavpackettype": "GLOBAL_POSITION_INT", "alt": 489446, "vz": -140}
{"vx": -5, "lon": 85455929, "time_boot_ms": 47775, "hdg": 8974, "relative_alt": 1428, "vy": -6, "lat": 473977415, "mavpackettype": "GLOBAL_POSITION_INT", "alt": 489484, "vz": -141}
{"vx": -5, "lon": 85455929, "time_boot_ms": 47795, "hdg": 8974, "relative_alt": 1454, "vy": -6, "lat": 473977415, "mavpackettype": "GLOBAL_POSITION_INT", "alt": 489510, "vz": -140}
{"vx": -5, "lon": 85455929, "time_boot_ms": 47807, "hdg": 8975, "relative_alt": 1470, "vy": -6, "lat": 473977415, "mavpackettype": "GLOBAL_POSITION_INT", "alt": 489526, "vz": -140}
{"vx": -5, "lon": 85455929, "time_boot_ms": 47835, "hdg": 8976, "relative_alt": 1507, "vy": -6, "lat": 473977415, "mavpackettype": "GLOBAL_POSITION_INT", "alt": 489562, "vz": -140}
{"vx": -5, "lon": 85455929, "time_boot_ms": 47847, "hdg": 8976, "relative_alt": 1524, "vy": -6, "lat": 473977415, "mavpackettype": "GLOBAL_POSITION_INT", "alt": 489579, "vz": -140}
{"vx": -5, "lon": 85455929, "time_boot_ms": 47874, "hdg": 8976, "relative_alt": 1561, "vy": -6, "lat": 473977415, "mavpackettype": "GLOBAL_POSITION_INT", "alt": 489617, "vz": -140}
{"vx": -5, "lon": 85455929, "time_boot_ms": 47886, "hdg": 8977, "relative_alt": 1578, "vy": -6, "lat": 473977414, "mavpackettype": "GLOBAL_POSITION_INT", "alt": 489633, "vz": -141}
{"vx": -5, "lon": 85455928, "time_boot_ms": 47907, "hdg": 8977, "relative_alt": 1607, "vy": -6, "lat": 473977414, "mavpackettype": "GLOBAL_POSITION_INT", "alt": 489663, "vz": -141}
{"vx": -5, "lon": 85455928, "time_boot_ms": 47920, "hdg": 8978, "relative_alt": 1626, "vy": -6, "lat": 473977414, "mavpackettype": "GLOBAL_POSITION_INT", "alt": 489682, "vz": -141}
{"vx": -5, "lon": 85455928, "time_boot_ms": 47954, "hdg": 8980, "relative_alt": 1674, "vy": -6, "lat": 473977414, "mavpackettype": "GLOBAL_POSITION_INT", "alt": 489730, "vz": -141}
{"vx": -5, "lon": 85455928, "time_boot_ms": 47965, "hdg": 8980, "relative_alt": 1687, "vy": -6, "lat": 473977414, "mavpackettype": "GLOBAL_POSITION_INT", "alt": 489743, "vz": -141}
{"vx": -4, "lon": 85455928, "time_boot_ms": 47991, "hdg": 8980, "relative_alt": 1720, "vy": -5, "lat": 473977414, "mavpackettype": "GLOBAL_POSITION_INT", "alt": 489776, "vz": -140}
{"vx": -4, "lon": 85455928, "time_boot_ms": 48013, "hdg": 8980, "relative_alt": 1749, "vy": -5, "lat": 473977414, "mavpackettype": "GLOBAL_POSITION_INT", "alt": 489805, "vz": -140}
{"vx": -4, "lon": 85455928, "time_boot_ms": 48024, "hdg": 8980, "relative_alt": 1765, "vy": -5, "lat": 473977414, "mavpackettype": "GLOBAL_POSITION_INT", "alt": 489821, "vz": -140}
{"vx": -4, "lon": 85455927, "time_boot_ms": 48053, "hdg": 8978, "relative_alt": 1804, "vy": -5, "lat": 473977414, "mavpackettype": "GLOBAL_POSITION_INT", "alt": 489860, "vz": -140}
{"vx": -4, "lon": 85455927, "time_boot_ms": 48063, "hdg": 8978, "relative_alt": 1820, "vy": -5, "lat": 473977414, "mavpackettype": "GLOBAL_POSITION_INT", "alt": 489875, "vz": -141}
{"vx": -4, "lon": 85455927, "time_boot_ms": 48089, "hdg": 8978, "relative_alt": 1856, "vy": -5, "lat": 473977414, "mavpackettype": "GLOBAL_POSITION_INT", "alt": 489911, "vz": -141}
{"vx": -4, "lon": 85455927, "time_boot_ms": 48104, "hdg": 8978, "relative_alt": 1876, "vy": -5, "lat": 473977414, "mavpackettype": "GLOBAL_POSITION_INT", "alt": 489932, "vz": -141}
{"vx": -4, "lon": 85455927, "time_boot_ms": 48131, "hdg": 8978, "relative_alt": 1915, "vy": -5, "lat": 473977414, "mavpackettype": "GLOBAL_POSITION_INT", "alt": 489971, "vz": -141}
{"vx": -4, "lon": 85455927, "time_boot_ms": 48156, "hdg": 8977, "relative_alt": 1947, "vy": -5, "lat": 473977414, "mavpackettype": "GLOBAL_POSITION_INT", "alt": 490003, "vz": -141}
{"vx": -4, "lon": 85455927, "time_boot_ms": 48167, "hdg": 8977, "relative_alt": 1962, "vy": -5, "lat": 473977414, "mavpackettype": "GLOBAL_POSITION_INT", "alt": 490017, "vz": -141}
{"vx": -4, "lon": 85455927, "time_boot_ms": 48192, "hdg": 8978, "relative_alt": 1994, "vy": -5, "lat": 473977414, "mavpackettype": "GLOBAL_POSITION_INT", "alt": 490050, "vz": -141}
{"vx": -4, "lon": 85455927, "time_boot_ms": 48218, "hdg": 8977, "relative_alt": 2029, "vy": -5, "lat": 473977414, "mavpackettype": "GLOBAL_POSITION_INT", "alt": 490085, "vz": -141}
{"vx": -4, "lon": 85455927, "time_boot_ms": 48230, "hdg": 8977, "relative_alt": 2046, "vy": -5, "lat": 473977414, "mavpackettype": "GLOBAL_POSITION_INT", "alt": 490102, "vz": -141}
{"vx": -4, "lon": 85455926, "time_boot_ms": 48254, "hdg": 8977, "relative_alt": 2080, "vy": -5, "lat": 473977414, "mavpackettype": "GLOBAL_POSITION_INT", "alt": 490136, "vz": -141}
{"vx": -4, "lon": 85455926, "time_boot_ms": 48266, "hdg": 8977, "relative_alt": 2097, "vy": -5, "lat": 473977414, "mavpackettype": "GLOBAL_POSITION_INT", "alt": 490153, "vz": -141}
{"vx": -4, "lon": 85455926, "time_boot_ms": 48290, "hdg": 8978, "relative_alt": 2131, "vy": -5, "lat": 473977414, "mavpackettype": "GLOBAL_POSITION_INT", "alt": 490186, "vz": -141}
{"vx": -4, "lon": 85455926, "time_boot_ms": 48304, "hdg": 8978, "relative_alt": 2151, "vy": -5, "lat": 473977414, "mavpackettype": "GLOBAL_POSITION_INT", "alt": 490207, "vz": -142}
{"vx": -4, "lon": 85455926, "time_boot_ms": 48329, "hdg": 8978, "relative_alt": 2185, "vy": -5, "lat": 473977414, "mavpackettype": "GLOBAL_POSITION_INT", "alt": 490241, "vz": -142}
{"vx": -4, "lon": 85455926, "time_boot_ms": 48343, "hdg": 8978, "relative_alt": 2204, "vy": -4, "lat": 473977414, "mavpackettype": "GLOBAL_POSITION_INT", "alt": 490259, "vz": -141}
{"vx": -4, "lon": 85455926, "time_boot_ms": 48370, "hdg": 8978, "relative_alt": 2240, "vy": -4, "lat": 473977414, "mavpackettype": "GLOBAL_POSITION_INT", "alt": 490295, "vz": -141}
{"vx": -4, "lon": 85455926, "time_boot_ms": 48384, "hdg": 8977, "relative_alt": 2260, "vy": -4, "lat": 473977414, "mavpackettype": "GLOBAL_POSITION_INT", "alt": 490316, "vz": -141}
{"vx": -4, "lon": 85455926, "time_boot_ms": 48408, "hdg": 8978, "relative_alt": 2294, "vy": -4, "lat": 473977414, "mavpackettype": "GLOBAL_POSITION_INT", "alt": 490349, "vz": -141}
{"vx": -4, "lon": 85455926, "time_boot_ms": 48430, "hdg": 8977, "relative_alt": 2325, "vy": -4, "lat": 473977414, "mavpackettype": "GLOBAL_POSITION_INT", "alt": 490381, "vz": -141}
{"vx": -5, "lon": 85455926, "time_boot_ms": 48454, "hdg": 8976, "relative_alt": 2358, "vy": -4, "lat": 473977414, "mavpackettype": "GLOBAL_POSITION_INT", "alt": 490414, "vz": -142}
{"vx": -5, "lon": 85455926, "time_boot_ms": 48471, "hdg": 8976, "relative_alt": 2384, "vy": -4, "lat": 473977414, "mavpackettype": "GLOBAL_POSITION_INT", "alt": 490440, "vz": -142}
{"vx": -5, "lon": 85455925, "time_boot_ms": 48493, "hdg": 8975, "relative_alt": 2415, "vy": -4, "lat": 473977414, "mavpackettype": "GLOBAL_POSITION_INT", "alt": 490470, "vz": -142}
{"vx": -4, "lon": 85455926, "time_boot_ms": 48515, "hdg": 8975, "relative_alt": 2444, "vy": -4, "lat": 473977414, "mavpackettype": "GLOBAL_POSITION_INT", "alt": 490500, "vz": -142}
{"vx": -4, "lon": 85455926, "time_boot_ms": 48527, "hdg": 8975, "relative_alt": 2461, "vy": -4, "lat": 473977414, "mavpackettype": "GLOBAL_POSITION_INT", "alt": 490517, "vz": -142}
{"vx": -4, "lon": 85455926, "time_boot_ms": 48543, "hdg": 8974, "relative_alt": 2482, "vy": -4, "lat": 473977414, "mavpackettype": "GLOBAL_POSITION_INT", "alt": 490538, "vz": -142}
{"vx": -4, "lon": 85455925, "time_boot_ms": 48569, "hdg": 8973, "relative_alt": 2519, "vy": -4, "lat": 473977414, "mavpackettype": "GLOBAL_POSITION_INT", "alt": 490574, "vz": -142}
{"vx": -5, "lon": 85455925, "time_boot_ms": 48587, "hdg": 8973, "relative_alt": 2544, "vy": -3, "lat": 473977414, "mavpackettype": "GLOBAL_POSITION_INT", "alt": 490600, "vz": -142}
{"vx": -5, "lon": 85455925, "time_boot_ms": 48612, "hdg": 8972, "relative_alt": 2580, "vy": -3, "lat": 473977414, "mavpackettype": "GLOBAL_POSITION_INT", "alt": 490636, "vz": -142}
{"vx": -5, "lon": 85455925, "time_boot_ms": 48635, "hdg": 8972, "relative_alt": 2613, "vy": -3, "lat": 473977414, "mavpackettype": "GLOBAL_POSITION_INT", "alt": 490669, "vz": -142}
{"vx": -5, "lon": 85455925, "time_boot_ms": 48647, "hdg": 8972, "relative_alt": 2630, "vy": -3, "lat": 473977414, "mavpackettype": "GLOBAL_POSITION_INT", "alt": 490686, "vz": -143}
{"vx": -4, "lon": 85455925, "time_boot_ms": 48674, "hdg": 8972, "relative_alt": 2668, "vy": -3, "lat": 473977414, "mavpackettype": "GLOBAL_POSITION_INT", "alt": 490724, "vz": -142}
{"vx": -4, "lon": 85455925, "time_boot_ms": 48685, "hdg": 8972, "relative_alt": 2682, "vy": -3, "lat": 473977414, "mavpackettype": "GLOBAL_POSITION_INT", "alt": 490738, "vz": -142}
{"vx": -4, "lon": 85455925, "time_boot_ms": 48713, "hdg": 8973, "relative_alt": 2721, "vy": -3, "lat": 473977414, "mavpackettype": "GLOBAL_POSITION_INT", "alt": 490777, "vz": -142}
{"vx": -4, "lon": 85455925, "time_boot_ms": 48725, "hdg": 8972, "relative_alt": 2738, "vy": -3, "lat": 473977414, "mavpackettype": "GLOBAL_POSITION_INT", "alt": 490794, "vz": -142}
{"vx": -4, "lon": 85455925, "time_boot_ms": 48750, "hdg": 8972, "relative_alt": 2774, "vy": -3, "lat": 473977414, "mavpackettype": "GLOBAL_POSITION_INT", "alt": 490829, "vz": -142}
{"vx": -4, "lon": 85455925, "time_boot_ms": 48765, "hdg": 8972, "relative_alt": 2795, "vy": -3, "lat": 473977414, "mavpackettype": "GLOBAL_POSITION_INT", "alt": 490851, "vz": -142}
{"vx": -4, "lon": 85455925, "time_boot_ms": 48789, "hdg": 8972, "relative_alt": 2829, "vy": -3, "lat": 473977414, "mavpackettype": "GLOBAL_POSITION_INT", "alt": 490885, "vz": -142}
{"vx": -4, "lon": 85455925, "time_boot_ms": 48811, "hdg": 8971, "relative_alt": 2861, "vy": -3, "lat": 473977414, "mavpackettype": "GLOBAL_POSITION_INT", "alt": 490917, "vz": -143}
{"vx": -4, "lon": 85455925, "time_boot_ms": 48834, "hdg": 8971, "relative_alt": 2895, "vy": -3, "lat": 473977414, "mavpackettype": "GLOBAL_POSITION_INT", "alt": 490950, "vz": -143}
{"vx": -4, "lon": 85455925, "time_boot_ms": 48845, "hdg": 8970, "relative_alt": 2912, "vy": -3, "lat": 473977414, "mavpackettype": "GLOBAL_POSITION_INT", "alt": 490968, "vz": -143}
{"vx": -4, "lon": 85455925, "time_boot_ms": 48880, "hdg": 8971, "relative_alt": 2959, "vy": -3, "lat": 473977414, "mavpackettype": "GLOBAL_POSITION_INT", "alt": 491015, "vz": -142}
{"vx": -3, "lon": 85455925, "time_boot_ms": 48892, "hdg": 8970, "relative_alt": 2976, "vy": -3, "lat": 473977414, "mavpackettype": "GLOBAL_POSITION_INT", "alt": 491031, "vz": -142}
{"vx": -3, "lon": 85455925, "time_boot_ms": 48906, "hdg": 8970, "relative_alt": 2996, "vy": -3, "lat": 473977415, "mavpackettype": "GLOBAL_POSITION_INT", "alt": 491052, "vz": -142}
{"vx": -3, "lon": 85455925, "time_boot_ms": 48928, "hdg": 8970, "relative_alt": 3027, "vy": -3, "lat": 473977415, "mavpackettype": "GLOBAL_POSITION_INT", "alt": 491082, "vz": -142}
{"vx": -3, "lon": 85455925, "time_boot_ms": 48952, "hdg": 8970, "relative_alt": 3062, "vy": -3, "lat": 473977415, "mavpackettype": "GLOBAL_POSITION_INT", "alt": 491118, "vz": -143}
{"vx": -3, "lon": 85455925, "time_boot_ms": 48975, "hdg": 8970, "relative_alt": 3095, "vy": -3, "lat": 473977414, "mavpackettype": "GLOBAL_POSITION_INT", "alt": 491151, "vz": -143}
{"vx": -3, "lon": 85455925, "time_boot_ms": 48985, "hdg": 8970, "relative_alt": 3109, "vy": -3, "lat": 473977414, "mavpackettype": "GLOBAL_POSITION_INT", "alt": 491165, "vz": -143}
{"vx": -3, "lon": 85455924, "time_boot_ms": 49010, "hdg": 8969, "relative_alt": 3146, "vy": -3, "lat": 473977414, "mavpackettype": "GLOBAL_POSITION_INT", "alt": 491202, "vz": -143}
{"vx": -3, "lon": 85455925, "time_boot_ms": 49033, "hdg": 8969, "relative_alt": 3178, "vy": -3, "lat": 473977415, "mavpackettype": "GLOBAL_POSITION_INT", "alt": 491234, "vz": -143}
{"vx": -2, "lon": 85455925, "time_boot_ms": 49047, "hdg": 8969, "relative_alt": 3198, "vy": -3, "lat": 473977415, "mavpackettype": "GLOBAL_POSITION_INT", "alt": 491254, "vz": -143}
{"vx": -2, "lon": 85455925, "time_boot_ms": 49069, "hdg": 8970, "relative_alt": 3229, "vy": -2, "lat": 473977415, "mavpackettype": "GLOBAL_POSITION_INT", "alt": 491285, "vz": -143}
{"vx": -2, "lon": 85455925, "time_boot_ms": 49093, "hdg": 8971, "relative_alt": 3265, "vy": -2, "lat": 473977415, "mavpackettype": "GLOBAL_POSITION_INT", "alt": 491321, "vz": -143}
{"vx": -2, "lon": 85455925, "time_boot_ms": 49109, "hdg": 8971, "relative_alt": 3288, "vy": -2, "lat": 473977415, "mavpackettype": "GLOBAL_POSITION_INT", "alt": 491344, "vz": -143}
{"vx": -2, "lon": 85455925, "time_boot_ms": 49129, "hdg": 8970, "relative_alt": 3317, "vy": -2, "lat": 473977415, "mavpackettype": "GLOBAL_POSITION_INT", "alt": 491373, "vz": -143}
{"vx": -2, "lon": 85455925, "time_boot_ms": 49155, "hdg": 8971, "relative_alt": 3355, "vy": -2, "lat": 473977415, "mavpackettype": "GLOBAL_POSITION_INT", "alt": 491411, "vz": -143}
{"vx": -2, "lon": 85455925, "time_boot_ms": 49169, "hdg": 8971, "relative_alt": 3376, "vy": -2, "lat": 473977415, "mavpackettype": "GLOBAL_POSITION_INT", "alt": 491431, "vz": -143}
{"vx": -3, "lon": 85455925, "time_boot_ms": 49192, "hdg": 8972, "relative_alt": 3409, "vy": -3, "lat": 473977415, "mavpackettype": "GLOBAL_POSITION_INT", "alt": 491464, "vz": -143}
{"vx": -2, "lon": 85455925, "time_boot_ms": 49216, "hdg": 8972, "relative_alt": 3443, "vy": -2, "lat": 473977416, "mavpackettype": "GLOBAL_POSITION_INT", "alt": 491498, "vz": -143}
{"vx": -2, "lon": 85455925, "time_boot_ms": 49229, "hdg": 8972, "relative_alt": 3461, "vy": -2, "lat": 473977416, "mavpackettype": "GLOBAL_POSITION_INT", "alt": 491516, "vz": -143}
{"vx": -2, "lon": 85455925, "time_boot_ms": 49244, "hdg": 8972, "relative_alt": 3482, "vy": -2, "lat": 473977416, "mavpackettype": "GLOBAL_POSITION_INT", "alt": 491538, "vz": -143}
{"vx": -3, "lon": 85455925, "time_boot_ms": 49256, "hdg": 8972, "relative_alt": 3500, "vy": -2, "lat": 473977416, "mavpackettype": "GLOBAL_POSITION_INT", "alt": 491556, "vz": -143}
{"vx": -3, "lon": 85455925, "time_boot_ms": 49282, "hdg": 8972, "relative_alt": 3537, "vy": -2, "lat": 473977416, "mavpackettype": "GLOBAL_POSITION_INT", "alt": 491593, "vz": -143}
{"vx": -3, "lon": 85455925, "time_boot_ms": 49305, "hdg": 8972, "relative_alt": 3570, "vy": -2, "lat": 473977416, "mavpackettype": "GLOBAL_POSITION_INT", "alt": 491625, "vz": -143}
{"vx": -3, "lon": 85455925, "time_boot_ms": 49330, "hdg": 8971, "relative_alt": 3607, "vy": -2, "lat": 473977416, "mavpackettype": "GLOBAL_POSITION_INT", "alt": 491663, "vz": -143}
{"vx": -3, "lon": 85455925, "time_boot_ms": 49352, "hdg": 8971, "relative_alt": 3640, "vy": -2, "lat": 473977416, "mavpackettype": "GLOBAL_POSITION_INT", "alt": 491696, "vz": -144}
{"vx": -3, "lon": 85455925, "time_boot_ms": 49368, "hdg": 8971, "relative_alt": 3663, "vy": -2, "lat": 473977416, "mavpackettype": "GLOBAL_POSITION_INT", "alt": 491719, "vz": -144}
{"vx": -3, "lon": 85455925, "time_boot_ms": 49394, "hdg": 8971, "relative_alt": 3699, "vy": -1, "lat": 473977416, "mavpackettype": "GLOBAL_POSITION_INT", "alt": 491755, "vz": -143}
{"vx": -3, "lon": 85455925, "time_boot_ms": 49415, "hdg": 8971, "relative_alt": 3729, "vy": -1, "lat": 473977416, "mavpackettype": "GLOBAL_POSITION_INT", "alt": 491785, "vz": -143}
{"vx": -3, "lon": 85455925, "time_boot_ms": 49429, "hdg": 8971, "relative_alt": 3749, "vy": -1, "lat": 473977416, "mavpackettype": "GLOBAL_POSITION_INT", "alt": 491805, "vz": -143}
{"vx": -3, "lon": 85455925, "time_boot_ms": 49453, "hdg": 8971, "relative_alt": 3784, "vy": -1, "lat": 473977416, "mavpackettype": "GLOBAL_POSITION_INT", "alt": 491840, "vz": -143}
{"vx": -3, "lon": 85455925, "time_boot_ms": 49466, "hdg": 8971, "relative_alt": 3804, "vy": -1, "lat": 473977416, "mavpackettype": "GLOBAL_POSITION_INT", "alt": 491859, "vz": -143}
{"vx": -4, "lon": 85455925, "time_boot_ms": 49491, "hdg": 8970, "relative_alt": 3840, "vy": -1, "lat": 473977416, "mavpackettype": "GLOBAL_POSITION_INT", "alt": 491895, "vz": -143}
{"vx": -4, "lon": 85455925, "time_boot_ms": 49517, "hdg": 8969, "relative_alt": 3879, "vy": -1, "lat": 473977416, "mavpackettype": "GLOBAL_POSITION_INT", "alt": 491935, "vz": -144}
{"vx": -4, "lon": 85455925, "time_boot_ms": 49525, "hdg": 8969, "relative_alt": 3891, "vy": -1, "lat": 473977416, "mavpackettype": "GLOBAL_POSITION_INT", "alt": 491947, "vz": -144}
{"vx": -4, "lon": 85455926, "time_boot_ms": 49550, "hdg": 8969, "relative_alt": 3926, "vy": -1, "lat": 473977417, "mavpackettype": "GLOBAL_POSITION_INT", "alt": 491981, "vz": -143}
{"vx": -3, "lon": 85455926, "time_boot_ms": 49574, "hdg": 8969, "relative_alt": 3960, "vy": -1, "lat": 473977417, "mavpackettype": "GLOBAL_POSITION_INT", "alt": 492016, "vz": -143}
{"vx": -3, "lon": 85455926, "time_boot_ms": 49586, "hdg": 8969, "relative_alt": 3978, "vy": -1, "lat": 473977417, "mavpackettype": "GLOBAL_POSITION_INT", "alt": 492034, "vz": -143}
{"vx": -4, "lon": 85455926, "time_boot_ms": 49623, "hdg": 8969, "relative_alt": 4033, "vy": -1, "lat": 473977417, "mavpackettype": "GLOBAL_POSITION_INT", "alt": 492089, "vz": -143}
{"vx": -4, "lon": 85455926, "time_boot_ms": 49636, "hdg": 8969, "relative_alt": 4053, "vy": -1, "lat": 473977417, "mavpackettype": "GLOBAL_POSITION_INT", "alt": 492109, "vz": -143}
{"vx": -4, "lon": 85455926, "time_boot_ms": 49648, "hdg": 8970, "relative_alt": 4070, "vy": -1, "lat": 473977417, "mavpackettype": "GLOBAL_POSITION_INT", "alt": 492126, "vz": -144}
{"vx": -4, "lon": 85455926, "time_boot_ms": 49671, "hdg": 8970, "relative_alt": 4106, "vy": -1, "lat": 473977417, "mavpackettype": "GLOBAL_POSITION_INT", "alt": 492162, "vz": -144}
{"vx": -4, "lon": 85455926, "time_boot_ms": 49685, "hdg": 8970, "relative_alt": 4127, "vy": -1, "lat": 473977417, "mavpackettype": "GLOBAL_POSITION_INT", "alt": 492183, "vz": -144}
{"vx": -4, "lon": 85455926, "time_boot_ms": 49708, "hdg": 8970, "relative_alt": 4160, "vy": -1, "lat": 473977417, "mavpackettype": "GLOBAL_POSITION_INT", "alt": 492216, "vz": -144}
{"vx": -4, "lon": 85455926, "time_boot_ms": 49734, "hdg": 8971, "relative_alt": 4198, "vy": -1, "lat": 473977417, "mavpackettype": "GLOBAL_POSITION_INT", "alt": 492253, "vz": -144}
{"vx": -4, "lon": 85455926, "time_boot_ms": 49751, "hdg": 8971, "relative_alt": 4224, "vy": -1, "lat": 473977417, "mavpackettype": "GLOBAL_POSITION_INT", "alt": 492279, "vz": -144}
{"vx": -4, "lon": 85455926, "time_boot_ms": 49765, "hdg": 8971, "relative_alt": 4244, "vy": -1, "lat": 473977417, "mavpackettype": "GLOBAL_POSITION_INT", "alt": 492299, "vz": -144}
{"vx": -4, "lon": 85455926, "time_boot_ms": 49789, "hdg": 8971, "relative_alt": 4281, "vy": -1, "lat": 473977417, "mavpackettype": "GLOBAL_POSITION_INT", "alt": 492337, "vz": -144}
{"vx": -4, "lon": 85455926, "time_boot_ms": 49802, "hdg": 8972, "relative_alt": 4299, "vy": -1, "lat": 473977417, "mavpackettype": "GLOBAL_POSITION_INT", "alt": 492355, "vz": -144}
{"vx": -4, "lon": 85455926, "time_boot_ms": 49828, "hdg": 8973, "relative_alt": 4340, "vy": -1, "lat": 473977417, "mavpackettype": "GLOBAL_POSITION_INT", "alt": 492396, "vz": -144}
{"vx": -4, "lon": 85455926, "time_boot_ms": 49853, "hdg": 8973, "relative_alt": 4377, "vy": -1, "lat": 473977417, "mavpackettype": "GLOBAL_POSITION_INT", "alt": 492433, "vz": -144}
{"vx": -4, "lon": 85455926, "time_boot_ms": 49866, "hdg": 8973, "relative_alt": 4396, "vy": -1, "lat": 473977417, "mavpackettype": "GLOBAL_POSITION_INT", "alt": 492452, "vz": -144}
{"vx": -4, "lon": 85455926, "time_boot_ms": 49888, "hdg": 8974, "relative_alt": 4428, "vy": -1, "lat": 473977417, "mavpackettype": "GLOBAL_POSITION_INT", "alt": 492484, "vz": -144}
{"vx": -4, "lon": 85455926, "time_boot_ms": 49912, "hdg": 8973, "relative_alt": 4463, "vy": -1, "lat": 473977418, "mavpackettype": "GLOBAL_POSITION_INT", "alt": 492519, "vz": -144}
{"vx": -4, "lon": 85455926, "time_boot_ms": 49936, "hdg": 8973, "relative_alt": 4499, "vy": -1, "lat": 473977418, "mavpackettype": "GLOBAL_POSITION_INT", "alt": 492555, "vz": -144}
{"vx": -4, "lon": 85455926, "time_boot_ms": 49947, "hdg": 8973, "relative_alt": 4516, "vy": -1, "lat": 473977418, "mavpackettype": "GLOBAL_POSITION_INT", "alt": 492571, "vz": -144}
{"vx": -4, "lon": 85455926, "time_boot_ms": 49973, "hdg": 8974, "relative_alt": 4554, "vy": -1, "lat": 473977418, "mavpackettype": "GLOBAL_POSITION_INT", "alt": 492610, "vz": -144}
{"vx": -4, "lon": 85455926, "time_boot_ms": 49985, "hdg": 8974, "relative_alt": 4573, "vy": -1, "lat": 473977418, "mavpackettype": "GLOBAL_POSITION_INT", "alt": 492629, "vz": -144}
{"vx": -4, "lon": 85455926, "time_boot_ms": 50009, "hdg": 8974, "relative_alt": 4608, "vy": -1, "lat": 473977418, "mavpackettype": "GLOBAL_POSITION_INT", "alt": 492664, "vz": -144}
{"vx": -4, "lon": 85455926, "time_boot_ms": 50035, "hdg": 8974, "relative_alt": 4648, "vy": -1, "lat": 473977418, "mavpackettype": "GLOBAL_POSITION_INT", "alt": 492704, "vz": -144}
{"vx": -4, "lon": 85455926, "time_boot_ms": 50046, "hdg": 8974, "relative_alt": 4664, "vy": -1, "lat": 473977418, "mavpackettype": "GLOBAL_POSITION_INT", "alt": 492720, "vz": -144}
{"vx": -4, "lon": 85455927, "time_boot_ms": 50070, "hdg": 8975, "relative_alt": 4700, "vy": -1, "lat": 473977418, "mavpackettype": "GLOBAL_POSITION_INT", "alt": 492756, "vz": -144}
{"vx": -4, "lon": 85455927, "time_boot_ms": 50084, "hdg": 8975, "relative_alt": 4721, "vy": -1, "lat": 473977418, "mavpackettype": "GLOBAL_POSITION_INT", "alt": 492777, "vz": -144}
{"vx": -4, "lon": 85455927, "time_boot_ms": 50108, "hdg": 8974, "relative_alt": 4755, "vy": -1, "lat": 473977418, "mavpackettype": "GLOBAL_POSITION_INT", "alt": 492811, "vz": -144}
{"vx": -4, "lon": 85455927, "time_boot_ms": 50139, "hdg": 8973, "relative_alt": 4802, "vy": -1, "lat": 473977418, "mavpackettype": "GLOBAL_POSITION_INT", "alt": 492858, "vz": -144}
{"vx": -4, "lon": 85455927, "time_boot_ms": 50153, "hdg": 8973, "relative_alt": 4824, "vy": -1, "lat": 473977418, "mavpackettype": "GLOBAL_POSITION_INT", "alt": 492880, "vz": -144}
{"vx": -4, "lon": 85455927, "time_boot_ms": 50165, "hdg": 8972, "relative_alt": 4842, "vy": -1, "lat": 473977418, "mavpackettype": "GLOBAL_POSITION_INT", "alt": 492898, "vz": -144}
{"vx": -4, "lon": 85455927, "time_boot_ms": 50190, "hdg": 8972, "relative_alt": 4879, "vy": -1, "lat": 473977418, "mavpackettype": "GLOBAL_POSITION_INT", "alt": 492934, "vz": -145}
{"vx": -4, "lon": 85455927, "time_boot_ms": 50201, "hdg": 8973, "relative_alt": 4896, "vy": -1, "lat": 473977418, "mavpackettype": "GLOBAL_POSITION_INT", "alt": 492952, "vz": -145}
{"vx": -4, "lon": 85455927, "time_boot_ms": 50228, "hdg": 8973, "relative_alt": 4936, "vy": -1, "lat": 473977418, "mavpackettype": "GLOBAL_POSITION_INT", "alt": 492992, "vz": -145}
{"vx": -4, "lon": 85455927, "time_boot_ms": 50252, "hdg": 8972, "relative_alt": 4973, "vy": -1, "lat": 473977418, "mavpackettype": "GLOBAL_POSITION_INT", "alt": 493029, "vz": -145}
{"vx": -4, "lon": 85455927, "time_boot_ms": 50264, "hdg": 8972, "relative_alt": 4990, "vy": -1, "lat": 473977418, "mavpackettype": "GLOBAL_POSITION_INT", "alt": 493046, "vz": -145}
{"vx": -4, "lon": 85455927, "time_boot_ms": 50292, "hdg": 8972, "relative_alt": 5033, "vy": -1, "lat": 473977419, "mavpackettype": "GLOBAL_POSITION_INT", "alt": 493088, "vz": -145}
{"vx": -4, "lon": 85455927, "time_boot_ms": 50315, "hdg": 8973, "relative_alt": 5068, "vy": -1, "lat": 473977419, "mavpackettype": "GLOBAL_POSITION_INT", "alt": 493123, "vz": -145}
{"vx": -4, "lon": 85455927, "time_boot_ms": 50329, "hdg": 8973, "relative_alt": 5089, "vy": -1, "lat": 473977419, "mavpackettype": "GLOBAL_POSITION_INT", "alt": 493145, "vz": -145}
{"vx": -4, "lon": 85455927, "time_boot_ms": 50355, "hdg": 8972, "relative_alt": 5128, "vy": -1, "lat": 473977419, "mavpackettype": "GLOBAL_POSITION_INT", "alt": 493184, "vz": -145}
{"vx": -4, "lon": 85455927, "time_boot_ms": 50370, "hdg": 8972, "relative_alt": 5151, "vy": -1, "lat": 473977418, "mavpackettype": "GLOBAL_POSITION_INT", "alt": 493206, "vz": -145}
{"vx": -4, "lon": 85455927, "time_boot_ms": 50393, "hdg": 8973, "relative_alt": 5186, "vy": -1, "lat": 473977418, "mavpackettype": "GLOBAL_POSITION_INT", "alt": 493242, "vz": -146}
{"vx": -5, "lon": 85455927, "time_boot_ms": 50406, "hdg": 8974, "relative_alt": 5205, "vy": -1, "lat": 473977418, "mavpackettype": "GLOBAL_POSITION_INT", "alt": 493261, "vz": -147}
{"vx": -5, "lon": 85455927, "time_boot_ms": 50432, "hdg": 8973, "relative_alt": 5247, "vy": -1, "lat": 473977418, "mavpackettype": "GLOBAL_POSITION_INT", "alt": 493303, "vz": -148}
{"vx": -4, "lon": 85455927, "time_boot_ms": 50456, "hdg": 8973, "relative_alt": 5285, "vy": -1, "lat": 473977419, "mavpackettype": "GLOBAL_POSITION_INT", "alt": 493341, "vz": -150}
{"vx": -4, "lon": 85455927, "time_boot_ms": 50466, "hdg": 8974, "relative_alt": 5301, "vy": -1, "lat": 473977419, "mavpackettype": "GLOBAL_POSITION_INT", "alt": 493357, "vz": -150}
{"vx": -4, "lon": 85455928, "time_boot_ms": 50491, "hdg": 8973, "relative_alt": 5341, "vy": -1, "lat": 473977419, "mavpackettype": "GLOBAL_POSITION_INT", "alt": 493397, "vz": -152}
{"vx": -4, "lon": 85455928, "time_boot_ms": 50511, "hdg": 8973, "relative_alt": 5375, "vy": -1, "lat": 473977419, "mavpackettype": "GLOBAL_POSITION_INT", "alt": 493430, "vz": -153}
{"vx": -4, "lon": 85455928, "time_boot_ms": 50534, "hdg": 8973, "relative_alt": 5412, "vy": -1, "lat": 473977419, "mavpackettype": "GLOBAL_POSITION_INT", "alt": 493468, "vz": -155}
{"vx": -4, "lon": 85455928, "time_boot_ms": 50552, "hdg": 8973, "relative_alt": 5441, "vy": -1, "lat": 473977419, "mavpackettype": "GLOBAL_POSITION_INT", "alt": 493496, "vz": -156}
{"vx": -4, "lon": 85455928, "time_boot_ms": 50569, "hdg": 8973, "relative_alt": 5469, "vy": -1, "lat": 473977419, "mavpackettype": "GLOBAL_POSITION_INT", "alt": 493525, "vz": -157}
{"vx": -4, "lon": 85455928, "time_boot_ms": 50590, "hdg": 8973, "relative_alt": 5504, "vy": -1, "lat": 473977419, "mavpackettype": "GLOBAL_POSITION_INT", "alt": 493559, "vz": -158}
{"vx": -4, "lon": 85455928, "time_boot_ms": 50611, "hdg": 8973, "relative_alt": 5543, "vy": -1, "lat": 473977419, "mavpackettype": "GLOBAL_POSITION_INT", "alt": 493599, "vz": -159}
{"vx": -4, "lon": 85455928, "time_boot_ms": 50630, "hdg": 8972, "relative_alt": 5579, "vy": -1, "lat": 473977419, "mavpackettype": "GLOBAL_POSITION_INT", "alt": 493635, "vz": -160}
{"vx": -4, "lon": 85455928, "time_boot_ms": 50654, "hdg": 8972, "relative_alt": 5622, "vy": -1, "lat": 473977419, "mavpackettype": "GLOBAL_POSITION_INT", "alt": 493678, "vz": -162}
{"vx": -4, "lon": 85455928, "time_boot_ms": 50666, "hdg": 8972, "relative_alt": 5644, "vy": -1, "lat": 473977419, "mavpackettype": "GLOBAL_POSITION_INT", "alt": 493700, "vz": -162}
{"vx": -4, "lon": 85455928, "time_boot_ms": 50694, "hdg": 8972, "relative_alt": 5693, "vy": -1, "lat": 473977419, "mavpackettype": "GLOBAL_POSITION_INT", "alt": 493749, "vz": -164}
{"vx": -4, "lon": 85455928, "time_boot_ms": 50715, "hdg": 8973, "relative_alt": 5730, "vy": -1, "lat": 473977419, "mavpackettype": "GLOBAL_POSITION_INT", "alt": 493786, "vz": -164}
{"vx": -4, "lon": 85455928, "time_boot_ms": 50727, "hdg": 8973, "relative_alt": 5751, "vy": -1, "lat": 473977419, "mavpackettype": "GLOBAL_POSITION_INT", "alt": 493807, "vz": -165}
{"vx": -4, "lon": 85455928, "time_boot_ms": 50748, "hdg": 8973, "relative_alt": 5788, "vy": -1, "lat": 473977419, "mavpackettype": "GLOBAL_POSITION_INT", "alt": 493844, "vz": -166}
{"vx": -4, "lon": 85455928, "time_boot_ms": 50773, "hdg": 8973, "relative_alt": 5831, "vy": -1, "lat": 473977419, "mavpackettype": "GLOBAL_POSITION_INT", "alt": 493887, "vz": -167}
{"vx": -4, "lon": 85455929, "time_boot_ms": 50802, "hdg": 8973, "relative_alt": 5888, "vy": -1, "lat": 473977419, "mavpackettype": "GLOBAL_POSITION_INT", "alt": 493944, "vz": -169}
{"vx": -4, "lon": 85455929, "time_boot_ms": 50815, "hdg": 8973, "relative_alt": 5915, "vy": -1, "lat": 473977420, "mavpackettype": "GLOBAL_POSITION_INT", "alt": 493971, "vz": -170}
{"vx": -4, "lon": 85455929, "time_boot_ms": 50828, "hdg": 8973, "relative_alt": 5939, "vy": -1, "lat": 473977420, "mavpackettype": "GLOBAL_POSITION_INT", "alt": 493994, "vz": -171}
{"vx": -4, "lon": 85455929, "time_boot_ms": 50845, "hdg": 8973, "relative_alt": 5972, "vy": -1, "lat": 473977420, "mavpackettype": "GLOBAL_POSITION_INT", "alt": 494028, "vz": -172}
{"vx": -4, "lon": 85455929, "time_boot_ms": 50872, "hdg": 8974, "relative_alt": 6021, "vy": -1, "lat": 473977420, "mavpackettype": "GLOBAL_POSITION_INT", "alt": 494077, "vz": -173}
{"vx": -4, "lon": 85455929, "time_boot_ms": 50893, "hdg": 8973, "relative_alt": 6060, "vy": -1, "lat": 473977420, "mavpackettype": "GLOBAL_POSITION_INT", "alt": 494116, "vz": -175}
{"vx": -4, "lon": 85455929, "time_boot_ms": 50904, "hdg": 8972, "relative_alt": 6079, "vy": -1, "lat": 473977420, "mavpackettype": "GLOBAL_POSITION_INT", "alt": 494135, "vz": -175}
{"vx": -5, "lon": 85455929, "time_boot_ms": 50930, "hdg": 8971, "relative_alt": 6128, "vy": -1, "lat": 473977420, "mavpackettype": "GLOBAL_POSITION_INT", "alt": 494183, "vz": -176}
{"vx": -5, "lon": 85455929, "time_boot_ms": 50954, "hdg": 8971, "relative_alt": 6173, "vy": -1, "lat": 473977419, "mavpackettype": "GLOBAL_POSITION_INT", "alt": 494229, "vz": -177}
{"vx": -5, "lon": 85455929, "time_boot_ms": 50973, "hdg": 8971, "relative_alt": 6207, "vy": -1, "lat": 473977419, "mavpackettype": "GLOBAL_POSITION_INT", "alt": 494263, "vz": -178}
{"vx": -5, "lon": 85455929, "time_boot_ms": 50995, "hdg": 8970, "relative_alt": 6253, "vy": -1, "lat": 473977420, "mavpackettype": "GLOBAL_POSITION_INT", "alt": 494309, "vz": -180}
{"vx": -5, "lon": 85455929, "time_boot_ms": 51009, "hdg": 8970, "relative_alt": 6280, "vy": -1, "lat": 473977420, "mavpackettype": "GLOBAL_POSITION_INT", "alt": 494335, "vz": -181}
{"vx": -5, "lon": 85455929, "time_boot_ms": 51033, "hdg": 8969, "relative_alt": 6328, "vy": -1, "lat": 473977420, "mavpackettype": "GLOBAL_POSITION_INT", "alt": 494384, "vz": -182}
{"vx": -5, "lon": 85455929, "time_boot_ms": 51045, "hdg": 8969, "relative_alt": 6352, "vy": -1, "lat": 473977420, "mavpackettype": "GLOBAL_POSITION_INT", "alt": 494407, "vz": -183}
{"vx": -5, "lon": 85455929, "time_boot_ms": 51057, "hdg": 8969, "relative_alt": 6374, "vy": -1, "lat": 473977420, "mavpackettype": "GLOBAL_POSITION_INT", "alt": 494430, "vz": -183}
{"vx": -5, "lon": 85455929, "time_boot_ms": 51082, "hdg": 8968, "relative_alt": 6422, "vy": -1, "lat": 473977420, "mavpackettype": "GLOBAL_POSITION_INT", "alt": 494478, "vz": -185}
{"vx": -5, "lon": 85455929, "time_boot_ms": 51106, "hdg": 8968, "relative_alt": 6469, "vy": -1, "lat": 473977420, "mavpackettype": "GLOBAL_POSITION_INT", "alt": 494525, "vz": -186}
{"vx": -5, "lon": 85455929, "time_boot_ms": 51131, "hdg": 8968, "relative_alt": 6517, "vy": -1, "lat": 473977420, "mavpackettype": "GLOBAL_POSITION_INT", "alt": 494573, "vz": -188}
{"vx": -5, "lon": 85455929, "time_boot_ms": 51143, "hdg": 8969, "relative_alt": 6541, "vy": -1, "lat": 473977420, "mavpackettype": "GLOBAL_POSITION_INT", "alt": 494597, "vz": -188}
{"vx": -5, "lon": 85455929, "time_boot_ms": 51170, "hdg": 8970, "relative_alt": 6596, "vy": -1, "lat": 473977420, "mavpackettype": "GLOBAL_POSITION_INT", "alt": 494651, "vz": -190}
{"vx": -5, "lon": 85455930, "time_boot_ms": 51194, "hdg": 8969, "relative_alt": 6646, "vy": -1, "lat": 473977420, "mavpackettype": "GLOBAL_POSITION_INT", "alt": 494702, "vz": -191}
{"vx": -5, "lon": 85455930, "time_boot_ms": 51206, "hdg": 8970, "relative_alt": 6672, "vy": -1, "lat": 473977420, "mavpackettype": "GLOBAL_POSITION_INT", "alt": 494728, "vz": -192}
{"vx": -5, "lon": 85455930, "time_boot_ms": 51235, "hdg": 8970, "relative_alt": 6731, "vy": 0, "lat": 473977420, "mavpackettype": "GLOBAL_POSITION_INT", "alt": 494787, "vz": -194}
{"vx": -5, "lon": 85455930, "time_boot_ms": 51249, "hdg": 8970, "relative_alt": 6760, "vy": 0, "lat": 473977420, "mavpackettype": "GLOBAL_POSITION_INT", "alt": 494816, "vz": -195}
{"vx": -5, "lon": 85455930, "time_boot_ms": 51266, "hdg": 8971, "relative_alt": 6794, "vy": 0, "lat": 473977420, "mavpackettype": "GLOBAL_POSITION_INT", "alt": 494850, "vz": -196}
{"vx": -5, "lon": 85455930, "time_boot_ms": 51290, "hdg": 8970, "relative_alt": 6844, "vy": 0, "lat": 473977420, "mavpackettype": "GLOBAL_POSITION_INT", "alt": 494900, "vz": -197}
{"vx": -5, "lon": 85455930, "time_boot_ms": 51314, "hdg": 8971, "relative_alt": 6892, "vy": 0, "lat": 473977420, "mavpackettype": "GLOBAL_POSITION_INT", "alt": 494947, "vz": -199}
{"vx": -5, "lon": 85455930, "time_boot_ms": 51328, "hdg": 8971, "relative_alt": 6922, "vy": 0, "lat": 473977420, "mavpackettype": "GLOBAL_POSITION_INT", "alt": 494977, "vz": -200}
{"vx": -5, "lon": 85455930, "time_boot_ms": 51353, "hdg": 8970, "relative_alt": 6981, "vy": 0, "lat": 473977420, "mavpackettype": "GLOBAL_POSITION_INT", "alt": 495036, "vz": -202}
{"vx": -4, "lon": 85455930, "time_boot_ms": 51366, "hdg": 8970, "relative_alt": 7008, "vy": 0, "lat": 473977420, "mavpackettype": "GLOBAL_POSITION_INT", "alt": 495063, "vz": -203}
{"vx": -4, "lon": 85455930, "time_boot_ms": 51392, "hdg": 8971, "relative_alt": 7065, "vy": 0, "lat": 473977420, "mavpackettype": "GLOBAL_POSITION_INT", "alt": 495121, "vz": -205}
{"vx": -4, "lon": 85455930, "time_boot_ms": 51411, "hdg": 8971, "relative_alt": 7105, "vy": 0, "lat": 473977420, "mavpackettype": "GLOBAL_POSITION_INT", "alt": 495161, "vz": -206}
{"vx": -4, "lon": 85455930, "time_boot_ms": 51425, "hdg": 8972, "relative_alt": 7136, "vy": -1, "lat": 473977420, "mavpackettype": "GLOBAL_POSITION_INT", "alt": 495192, "vz": -206}
{"vx": -5, "lon": 85455930, "time_boot_ms": 51448, "hdg": 8973, "relative_alt": 7185, "vy": -1, "lat": 473977420, "mavpackettype": "GLOBAL_POSITION_INT", "alt": 495241, "vz": -207}
{"vx": -5, "lon": 85455930, "time_boot_ms": 51470, "hdg": 8974, "relative_alt": 7233, "vy": -1, "lat": 473977420, "mavpackettype": "GLOBAL_POSITION_INT", "alt": 495289, "vz": -208}
